,Latitude,Longitude,Time,Date,Number of Sats,GPS Speed (Kn),GPS True Heading,GPS Magnetic Variation,HDOP,C Magnetic Heading,C True Heading,Pitch Angle,Roll Angle,C Inside Temp (c),DFS Depth (m),DTB Height (m),Total Water Column (m),Batt Percent,Power Watts,Watt-Hours,Batt Volts,Batt Ampers,Batt State,Time to Empty,Current Step,Dist To Next (m),Next Speed (kn),Vehicle Speed (kn),Motor Speed CMD,Next Heading,Next Long,Next Lat,Next Depth (m),Depth Goal (m),Vehicle State,Error State,Distance to Track (m),Fin Pitch R,Fin Pitch L,Pitch Goal,Fin Yaw T,Fin Yaw B,Yaw Goal,Fin Roll,DVL-Depth (m),DVL -Altitude (m),DVL -Water Column (m),DVL-FixType,DVL-FixQuality,DVL-Temperature,Conductivity (mmhos/cm),Temperature (c),Salinity (ppt),Sound Speed (m/s),Date m/d/y   ,Time hh:mm:ss,Temp C,SpCond mS/cm,Sal ppt,Depth feet,pH,pH mV,Turbid+ NTU,Chl ug/L,BGA-PC cells/mL,ODOsat %,ODO mg/L,Battery volts,ROSEM Command Type,Unnamed: 69
0,243837593209406.12,-107.90939499999999,14:46:15.88,4/25/2018,10,0.095,271.43,9.305718042061251,1.1,179.1,185.46,3.45,-4.34,20.7,0.01,0.48,0.49,94,21,514.4,16.2,-1.3,D,1602.3,0,12.780999999999999,2.5,0.0,128,179.65,-107.90939411,37.23851739,0.0,0.0,1,N,9.9371,78,78,11.0,103,103,179.4763,0,9999.99,0.51,0.637,2,9,17.8,0,17.7999992370605,0.21,1475.6218800000001,04/25/18,14:36:10,12.18,0.435,0.21,-7.515,8.42,-80.0,-0.2,-5.5,-2102,88.2,9.45,12.4,0.0,0.0
1,243770926550013.2,-107.909395333333,14:46:16.92,4/25/2018,10,0.07200000000000001,271.43,9.305718042061251,1.1,178.1,184.43,3.45,-4.78,20.6,0.0,0.48,0.48,94,21,514.4,16.2,-1.3,D,1602.3,0,12.708,2.5,0.0,128,179.51,-107.90939411,37.23851739,0.0,0.0,1,N,9.86077,78,78,11.0,110,110,179.4431,0,9999.99,0.51,0.637,0,0,17.8,0,17.7999992370605,0.21,1475.62138,04/25/18,14:36:11,12.23,0.435,0.21,-7.5089999999999995,8.42,-80.1,-1.2,-0.3,-3962,88.2,9.44,12.6,0.0,0.0
2,243742020808923.6,-107.909395642752,14:46:17.92,4/25/2018,10,0.094,271.43,9.305718042061251,1.1,175.3,181.57,5.76,-0.34,20.7,0.02,0.48,0.5,94,25,514.4,16.2,-1.5,D,1346.4,0,12.675999999999998,2.5,0.3,184,179.39,-107.90939411,37.23851739,0.0,0.0,1,N,9.86077,88,88,11.0,113,113,179.4288,0,9999.99,0.51,0.637,0,0,17.7,0,17.7000007629395,0.21,1475.29541,04/25/18,14:36:12,12.25,0.434,0.21,-7.516,8.42,-79.9,-0.4,-2.4,905,88.3,9.45,12.3,0.0,0.0
3,243531814219011.28,-107.909395717799,14:46:18.94,4/25/2018,10,0.6629999999999999,271.43,9.305718042061251,1.1,177.1,183.41,4.04,3.06,20.7,0.03,0.47,0.5,94,25,514.4,16.2,-1.5,D,1346.4,0,12.442,2.5,0.34,184,179.34,-107.90939411,37.23851739,0.0,0.0,1,N,9.86077,86,86,11.0,110,110,179.375,0,9999.99,0.52,0.647,2,9,17.7,0,17.7000007629395,0.21,1475.29541,04/25/18,14:36:12,12.25,0.434,0.21,-7.516,8.42,-79.9,-0.4,-2.4,905,88.3,9.45,12.3,0.0,0.0
4,242910082139502.5,-107.909396199461,14:46:19.95,4/25/2018,10,1.381,211.44,9.305718042061251,1.1,175.9,182.18,1.8,2.65,20.7,0.01,0.52,0.53,94,25,514.4,16.2,-1.5,D,1346.4,0,11.751,2.5,0.71,184,179.1,-107.90939411,37.23851739,0.0,0.0,1,N,9.86077,68,68,11.0,115,115,179.1232,0,9999.99,0.54,0.667,2,9,17.7,0,17.7000007629395,0.21,1475.2986,04/25/18,14:36:13,12.27,0.433,0.21,-7.5120000000000005,8.42,-80.2,-0.3,-6.5,-2979,88.3,9.45,12.5,0.0,0.0
5,242171833089344.1,-107.909396939464,14:46:20.95,4/25/2018,10,1.824,194.29,9.305718042061251,1.1,177.1,183.41,1.37,1.65,20.7,0.0,0.57,0.57,94,25,514.4,16.2,-1.5,D,1346.4,0,10.932,2.5,1.11,184,178.69,-107.90939411,37.23851739,0.0,0.0,1,N,9.86077,65,65,11.0,106,106,178.7153,0,9999.99,0.58,0.7070000000000001,2,9,17.7,0,17.7000007629395,0.22,1475.30674,04/25/18,14:36:15,12.15,0.447,0.22,-7.422000000000001,8.4,-78.9,0.0,-4.2,-2343,87.9,9.43,12.4,0.0,0.0
6,241091395439241.28,-107.90939760689001,14:46:21.95,4/25/2018,10,2.005,189.71,9.305718042061251,1.1,175.5,181.77,2.95,4.63,20.7,0.0,0.64,0.64,94,53,514.4,16.1,-3.3,D,645.8,0,9.732000000000001,2.5,1.42,184,178.18,-107.90939411,37.23851739,0.0,0.0,1,N,9.86077,73,73,11.0,113,113,178.2116,0,9999.99,0.66,0.787,2,9,17.6,0,17.6000003814697,0.22,1474.97894,04/25/18,14:36:16,11.66,0.445,0.22,-7.416,8.4,-78.7,-0.5,3.3,-455,87.9,9.53,12.4,0.0,0.0
7,240081155839533.28,-107.90939873974001,14:46:22.95,4/25/2018,10,2.168,188.04,9.305718042061251,1.1,175.9,182.18,2.68,3.97,20.7,0.0,0.73,0.73,94,53,514.4,16.1,-3.3,D,645.8,0,8.613999999999999,2.5,1.64,184,177.27,-107.90939411,37.23851739,0.0,0.0,1,N,9.86077,73,73,11.0,108,108,177.332,0,9999.99,0.75,0.877,2,9,17.6,0,17.6000003814697,0.22,1474.97894,04/25/18,14:36:16,11.66,0.445,0.22,-7.416,8.4,-78.7,-0.5,3.3,-455,87.9,9.53,12.4,0.0,0.0
8,239034673649740.62,-107.90939913890399,14:46:23.95,4/25/2018,10,2.186,187.15,9.305718042061251,1.1,175.0,181.26,3.48,5.14,20.7,0.01,0.8,0.81,94,53,514.4,16.1,-3.3,D,645.8,0,7.454,2.5,1.91,184,176.58,-107.90939411,37.23851739,0.0,0.0,1,N,9.86077,78,78,11.0,109,109,176.6588,0,9999.99,0.83,0.9570000000000001,2,9,17.5,0,17.6000003814697,0.22,1474.9792400000001,04/25/18,14:36:17,11.27,0.452,0.22,-7.471,8.39,-78.3,-1.3,0.7,-3021,88.0,9.63,12.4,0.0,0.0
9,237934342129619.84,-107.909399614799,14:46:24.97,4/25/2018,10,2.194,185.09,9.305718042061251,1.1,173.9,180.14,3.39,6.04,20.7,0.01,0.89,0.9,94,51,514.3,16.1,-3.1,D,671.6,0,6.236000000000001,2.5,2.03,184,175.52,-107.90939411,37.23851739,0.0,0.0,1,N,9.86077,77,77,11.0,109,109,175.608,0,9999.99,0.92,1.047,2,9,17.4,0,17.3999996185303,0.22,1474.32274,04/25/18,14:36:19,11.12,0.452,0.22,-7.475,8.38,-77.5,-0.5,-2.4,-1572,87.6,9.62,12.4,0.0,0.0
10,236895899958966.53,-107.90940048458201,14:46:25.98,4/25/2018,10,2.239,182.78,9.305718042061251,1.1,172.9,179.12,3.13,4.87,20.7,0.01,0.98,0.98,94,51,514.3,16.1,-3.1,D,671.6,0,5.093999999999999,2.5,2.12,184,173.64,-107.90939411,37.23851739,0.0,0.0,1,N,9.86077,76,76,11.0,106,106,173.7719,0,9999.99,1.01,1.137,2,9,17.3,0,17.3999996185303,0.22,1474.32274,04/25/18,14:36:19,11.12,0.452,0.22,-7.475,8.38,-77.5,-0.5,-2.4,-1572,87.6,9.62,12.4,0.0,0.0
11,235790419879577.94,-107.909399585825,14:46:26.98,4/25/2018,10,2.3,183.13,9.305718042061251,1.1,169.8,175.97,3.06,5.35,20.7,0.0,1.07,1.07,94,51,514.3,16.1,-3.1,D,671.6,0,3.863,2.5,2.17,184,172.79,-107.90939411,37.23851739,0.0,0.0,1,N,9.86077,75,75,11.0,115,115,172.8519,0,9999.99,1.1,1.227,2,9,17.2,0,17.2999992370605,0.22,1473.9927400000001,04/25/18,14:36:20,11.03,0.452,0.22,-7.438,8.38,-77.8,-0.5,-1.3,-1202,87.5,9.63,12.3,0.0,0.0
12,234702271329467.75,-107.90940016152399,14:46:28.02,4/25/2018,10,2.262,182.58,9.305718042061251,1.1,170.1,176.28,3.15,5.4,20.8,0.0,1.17,1.17,94,51,514.3,16.1,-3.1,D,671.6,0,2.677,2.5,2.2,184,168.46,-107.90939411,37.23851739,0.0,0.0,1,N,0.02710333,76,76,11.0,98,98,169.1227,0,9999.99,1.2,1.327,2,9,17.1,0,17.1000003814697,0.22,1473.33033,04/25/18,14:36:22,10.86,0.45299999999999996,0.22,-7.462999999999999,8.37,-77.1,-0.6,-2.4,-3762,87.3,9.64,12.5,0.0,0.0
13,233748218459339.78,-107.90939959171699,14:46:29.02,4/25/2018,10,2.263,180.43,9.305718042061251,1.1,167.6,173.75,3.66,5.87,20.7,0.0,1.27,1.28,94,51,514.3,16.1,-3.1,D,671.8,0,1.636,2.5,2.21,184,162.74,-107.90939411,37.23851739,0.0,0.0,1,N,0.1811479,79,79,11.0,104,104,168.0194,0,9999.99,1.3,1.4269999999999998,2,9,17.0,0,17.1000003814697,0.22,1473.33034,04/25/18,14:36:23,10.79,0.45299999999999996,0.22,-7.452000000000001,8.37,-76.8,-0.5,-5.2,-3051,87.2,9.64,12.6,0.0,0.0
14,232708148179483.5,-107.90939838530899,14:46:30.02,4/25/2018,10,2.219,177.99,9.305718042061251,1.1,165.6,171.73,3.17,4.96,20.8,0.0,1.35,1.35,94,51,514.3,16.1,-3.1,D,671.8,1,41.217,2.5,2.23,185,243.82,-107.90981623,37.23835752,0.0,0.0,1,N,0.650641,76,76,11.0,250,250,239.9105,0,9999.99,1.38,1.507,2,9,16.9,0,17.0,0.22,1472.99795,04/25/18,14:36:24,10.77,0.45399999999999996,0.22,-7.477,8.39,-77.8,-1.1,-5.7,-4136,87.1,9.64,12.3,0.0,0.0
15,231668883439084.53,-107.909397675543,14:46:31.02,4/25/2018,11,2.185,176.72,9.305718042061251,0.81,176.5,182.79,2.18,11.4,20.8,0.0,1.39,1.4,94,51,514.3,16.1,-3.1,D,671.8,1,40.778,2.5,2.23,185,245.32,-107.90981623,37.23835752,0.0,0.0,1,N,0.428915,71,71,11.0,250,250,247.6283,0,9999.99,1.42,1.547,2,9,16.8,0,17.0,0.22,1472.99795,04/25/18,14:36:24,10.77,0.45399999999999996,0.22,-7.477,8.39,-77.8,-1.1,-5.7,-4136,87.1,9.64,12.3,0.0,0.0
16,230646709108839.34,-107.90939672721001,14:46:32.03,4/25/2018,11,1.98,174.83,9.305718042061251,0.81,186.0,192.58,4.15,5.02,20.8,0.0,1.41,1.41,94,54,514.3,16.1,-3.3,D,631.3,1,40.394,2.5,2.21,185,246.83,-107.90981623,37.23835752,0.0,0.0,1,N,1.4878049999999998,84,84,11.0,250,250,255.0943,0,9999.99,1.44,1.567,2,9,16.7,0,16.7999992370605,0.22,1472.33033,04/25/18,14:36:25,10.81,0.455,0.22,-7.473,8.37,-76.7,-0.9,-6.9,-4509,87.0,9.63,12.6,0.0,0.0
17,229617790108704.88,-107.90939983034201,14:46:33.06,4/25/2018,12,2.191,180.89,9.305718042061251,0.81,199.7,206.87,5.44,5.77,20.8,0.01,1.41,1.42,94,54,514.3,16.1,-3.3,D,631.3,1,39.702,2.5,2.08,185,248.2,-107.90981623,37.23835752,0.0,0.0,1,N,2.436614,90,90,11.0,250,250,261.4988,0,9999.99,1.45,1.577,2,9,16.7,0,16.7000007629395,0.22,1471.99587,04/25/18,14:36:26,10.9,0.455,0.22,-7.459,8.36,-76.6,-1.1,-6.0,-36,87.0,9.61,12.4,0.0,0.0
18,228852423839498.44,-107.909404115979,14:46:34.06,4/25/2018,12,1.906,188.59,9.305718042061251,0.84,215.3,223.29,5.27,9.6,20.7,0.01,1.47,1.48,94,54,514.3,16.1,-3.3,D,631.3,1,39.039,2.5,2.02,186,249.15,-107.90981623,37.23835752,0.0,0.0,1,N,3.082879,89,89,11.0,250,250,265.6371,0,9999.99,1.51,1.6369999999999998,2,9,16.6,0,16.6000003814697,0.22,1471.66097,04/25/18,14:36:28,11.04,0.45399999999999996,0.22,-7.507000000000001,8.36,-76.4,0.2,-1.8,-1682,87.1,9.58,12.3,0.0,0.0
19,228201922949722.3,-107.909410212762,14:46:35.06,4/25/2018,11,1.8840000000000001,200.44,9.305718042061251,0.84,226.6,235.19,4.83,7.88,20.8,0.01,1.57,1.58,94,54,514.3,16.1,-3.3,D,631.3,1,38.28,2.5,1.96,187,249.87,-107.90981623,37.23835752,0.0,0.0,1,N,3.5233489999999996,87,87,11.0,250,250,268.3291,0,9999.99,1.62,1.7469999999999999,2,9,16.5,0,16.6000003814697,0.22,1471.66097,04/25/18,14:36:28,11.04,0.45399999999999996,0.22,-7.507000000000001,8.36,-76.4,0.2,-1.8,-1682,87.1,9.58,12.3,0.0,0.0
20,227679827079896.3,-107.90941863151899,14:46:36.08,4/25/2018,12,1.943,212.56,9.305718042061251,0.81,240.2,249.44,5.06,5.98,20.8,0.01,1.7,1.7,94,56,514.3,16.1,-3.5,D,607.4,1,37.382,2.5,1.93,188,250.32,-107.90981623,37.23835752,0.0,0.0,1,N,3.7622419999999996,87,87,11.0,208,208,269.7473,0,9999.99,1.74,1.867,2,9,16.5,0,16.5,0.22,1471.3239,04/25/18,14:36:29,11.07,0.45299999999999996,0.22,-7.492999999999999,8.36,-76.4,-1.4,-3.5,-1664,87.1,9.58,12.5,0.0,0.0
21,227322197019219.62,-107.909428270272,14:46:37.08,4/25/2018,12,1.861,225.9,9.305718042061251,0.81,252.9,262.63,5.78,6.81,20.8,0.01,1.78,1.79,94,56,514.3,16.1,-3.5,D,607.4,1,36.445,2.5,1.91,189,250.45,-107.90981623,37.23835752,0.0,0.0,1,N,3.7731779999999997,90,90,11.0,163,163,269.8095,0,9999.99,1.83,1.9569999999999999,2,9,16.4,0,16.3999996185303,0.22,1470.98583,04/25/18,14:36:31,10.98,0.45299999999999996,0.22,-7.496,8.35,-75.7,-0.6,-4.9,-2234,87.2,9.61,12.6,0.0,0.0
22,227121589339418.5,-107.909439508397,14:46:38.08,4/25/2018,12,2.077,240.49,9.305718042061251,0.81,258.2,268.1,4.88,3.67,20.8,0.01,1.78,1.79,94,56,514.3,16.1,-3.5,D,607.4,1,35.433,2.5,1.97,190,250.25,-107.90981623,37.23835752,0.0,0.0,1,N,3.5615919999999996,86,86,11.0,130,130,268.5582,0,9999.99,1.83,1.9569999999999999,2,9,16.4,0,16.3999996185303,0.22,1470.98583,04/25/18,14:36:31,10.98,0.45299999999999996,0.22,-7.496,8.35,-75.7,-0.6,-4.9,-2234,87.2,9.61,12.6,0.0,0.0
23,226979005479677.2,-107.909455718153,14:46:39.08,4/25/2018,12,2.294,257.78,9.305718042061251,0.81,259.6,269.54,3.6,5.67,20.8,0.0,1.85,1.85,94,61,514.3,16.1,-3.7,D,564.5,1,34.03,2.5,2.13,190,249.69,-107.90981623,37.23835752,0.0,0.0,1,N,3.100047,79,79,11.0,112,112,265.741,0,9999.99,1.89,2.017,2,9,16.4,0,16.3999996185303,0.22,1470.9859800000002,04/25/18,14:36:32,10.91,0.452,0.22,-7.507999999999999,8.36,-76.2,-1.2,-1.4,-7113,87.2,9.63,12.4,0.0,0.0
24,226920706059274.84,-107.909471212662,14:46:40.08,4/25/2018,12,2.457,262.25,9.305718042061251,0.81,258.9,268.82,2.56,6.78,20.8,0.0,1.86,1.86,94,61,514.3,16.1,-3.7,D,564.5,1,32.724000000000004,2.5,2.22,190,248.96,-107.90981623,37.23835752,0.0,0.0,1,N,2.5707470000000003,72,72,11.0,101,101,262.3732,0,9999.99,1.88,2.0069999999999997,2,9,16.3,0,16.3999996185303,0.22,1470.9853,04/25/18,14:36:33,10.83,0.451,0.22,-7.487,8.35,-75.9,-0.2,-3.2,-2436,87.2,9.64,12.4,0.0,0.0
25,226930105139899.75,-107.909486313179,14:46:41.08,4/25/2018,12,2.366,266.82,9.305718042061251,0.81,257.5,267.38,3.05,6.06,20.8,0.0,1.83,1.83,94,61,514.3,16.1,-3.7,D,564.5,1,31.484,2.5,2.31,190,248.07,-107.90981623,37.23835752,0.0,0.0,1,N,1.979748,76,76,11.0,88,88,258.4588,0,9999.99,1.85,1.9769999999999999,2,9,16.3,0,16.2999992370605,0.22,1470.64656,04/25/18,14:36:34,10.75,0.45,0.22,-7.459,8.35,-76.0,-0.3,-6.9,-3842,87.1,9.65,12.5,0.0,0.0
26,226935460959509.78,-107.909499418679,14:46:42.08,4/25/2018,12,2.349,268.67,9.305718042061251,0.84,256.3,266.14,3.88,4.65,20.9,0.0,1.81,1.81,94,61,514.3,16.1,-3.7,D,564.5,1,30.413,2.5,2.32,190,247.24,-107.90981623,37.23835752,0.0,0.0,1,N,1.480149,80,80,11.0,81,81,255.0413,0,9999.99,1.84,1.9669999999999999,2,9,16.2,0,16.2999992370605,0.22,1470.64658,04/25/18,14:36:35,10.59,0.451,0.22,-7.455,8.34,-75.3,-1.0,-1.0,-827,87.1,9.68,12.5,0.0,0.0
27,226846354999565.84,-107.909513975051,14:46:43.08,4/25/2018,11,2.2880000000000003,267.96,9.305718042061251,0.84,253.1,262.84,4.28,4.91,20.9,0.0,1.79,1.8,94,47,514.2,16.1,2.9,C,-1.0,1,29.189,2.5,2.36,190,246.45,-107.90981623,37.23835752,0.0,0.0,1,N,1.011887,84,84,11.0,78,78,251.7677,0,9999.99,1.83,1.9569999999999999,2,9,16.2,0,16.2000007629395,0.22,1470.30718,04/25/18,14:36:37,10.38,0.451,0.22,-7.4910000000000005,8.36,-76.0,-1.9,-2.6,-3628,86.8,9.7,12.4,0.0,0.0
28,226666444009282.5,-107.90952892573,14:46:44.08,4/25/2018,11,2.363,265.42,9.305718042061251,0.81,248.3,257.87,3.74,5.21,21.0,0.0,1.81,1.81,94,47,514.2,16.1,2.9,C,-1.0,1,27.898000000000003,2.5,2.35,190,245.74,-107.90981623,37.23835752,0.0,0.0,1,N,0.6046473000000001,79,79,11.0,91,91,248.8813,0,9999.99,1.84,1.9669999999999999,2,9,16.1,0,16.2000007629395,0.22,1470.30718,04/25/18,14:36:37,10.38,0.451,0.22,-7.4910000000000005,8.36,-76.0,-1.9,-2.6,-3628,86.8,9.7,12.4,0.0,0.0
29,226449988929289.25,-107.90954164690001,14:46:45.08,4/25/2018,12,2.319,262.67,9.305718042061251,0.84,243.9,253.3,3.52,6.98,20.9,0.0,1.8,1.8,94,47,514.2,16.1,2.9,C,-1.0,1,26.774,2.5,2.33,190,245.22,-107.90981623,37.23835752,0.0,0.0,1,N,0.3301035,80,80,11.0,96,96,246.9219,0,9999.99,1.83,1.9569999999999999,2,9,16.1,0,16.1000003814697,0.22,1469.96707,04/25/18,14:36:38,10.27,0.45299999999999996,0.22,-7.492000000000001,8.34,-74.9,-0.6,-5.6,-3628,86.7,9.72,12.5,0.0,0.0
30,226204764499726.72,-107.90955399101401,14:46:46.08,4/25/2018,11,2.305,258.52,9.305718042061251,0.84,241.4,250.69,3.2,6.64,20.9,0.0,1.82,1.82,94,47,514.2,16.1,2.9,C,-1.0,1,25.668000000000003,2.5,2.3,191,244.75,-107.90981623,37.23835752,0.0,0.0,1,N,0.1015086,76,76,11.0,105,105,245.28599999999997,0,9999.99,1.85,1.9769999999999999,2,9,16.0,0,16.1000003814697,0.22,1469.9669,04/25/18,14:36:40,10.11,0.452,0.22,-7.474,8.37,-76.5,-1.7,-4.5,-2960,86.5,9.72,12.4,0.0,0.0
31,225897693459131.7,-107.90956747691999,14:46:47.08,4/25/2018,11,2.309,256.42,9.305718042061251,0.84,239.8,249.02,3.3,7.36,20.9,0.0,1.84,1.84,93,61,514.2,16.1,-3.7,D,565.1,1,24.444000000000003,2.5,2.36,191,244.28,-107.90981623,37.23835752,0.0,0.0,1,N,0.1036277,77,77,11.0,106,106,243.8169,0,9999.99,1.87,1.9969999999999999,2,9,16.0,0,16.1000003814697,0.22,1469.9669,04/25/18,14:36:40,10.11,0.452,0.22,-7.474,8.37,-76.5,-1.7,-4.5,-2960,86.5,9.72,12.4,0.0,0.0
32,225505597129682.66,-107.909582633077,14:46:48.08,4/25/2018,12,2.3680000000000003,252.21,9.305718042061251,0.84,238.1,247.25,3.77,6.97,20.9,0.0,1.86,1.86,93,61,514.2,16.1,-3.7,D,565.1,1,23.046999999999997,2.5,2.37,191,243.8,-107.90981623,37.23835752,0.0,0.0,1,N,0.2923172,80,80,11.0,108,108,242.4664,0,9999.99,1.89,2.017,2,9,15.9,0,16.0,0.22,1469.62573,04/25/18,14:36:41,10.08,0.456,0.22,-7.477,8.33,-74.6,0.4,-4.3,-1195,86.4,9.72,12.5,0.0,0.0
33,225118189069206.66,-107.909594373359,14:46:49.09,4/25/2018,12,2.346,251.19,9.305718042061251,0.84,236.5,245.57,3.98,9.0,20.9,0.0,1.89,1.89,93,61,514.2,16.1,-3.7,D,565.1,1,21.924,2.5,2.34,191,243.62,-107.90981623,37.23835752,0.0,0.0,1,N,0.3543135,81,81,11.0,111,111,242.0231,0,9999.99,1.92,2.0469999999999997,2,9,15.8,0,15.8999996185303,0.22,1469.28371,04/25/18,14:36:43,10.2,0.45399999999999996,0.22,-7.492000000000001,8.32,-74.1,-1.2,-6.5,-1977,86.2,9.67,12.4,0.0,0.0
34,224613419579355.88,-107.90960778409901,14:46:50.11,4/25/2018,12,2.347,248.67,9.305718042061251,0.84,235.9,244.95,4.38,6.05,20.9,0.0,1.89,1.89,93,61,514.2,16.1,-3.7,D,563.2,1,20.611,2.5,2.37,191,243.55,-107.90981623,37.23835752,0.0,0.0,1,N,0.3624384,83,83,11.0,115,115,241.965,0,9999.99,1.92,2.0469999999999997,2,9,15.8,0,15.8999996185303,0.22,1469.28371,04/25/18,14:36:43,10.2,0.45399999999999996,0.22,-7.492000000000001,8.32,-74.1,-1.2,-6.5,-1977,86.2,9.67,12.4,0.0,0.0
35,224171540359208.16,-107.90962033837299,14:46:51.13,4/25/2018,11,2.31,248.74,9.305718042061251,0.84,234.5,243.48,3.88,7.78,20.9,0.0,1.89,1.89,93,61,514.2,16.1,-3.7,D,563.2,1,19.397000000000002,2.5,2.42,191,243.38,-107.90981623,37.23835752,0.0,0.0,1,N,0.4018855,80,80,11.0,120,120,241.6831,0,9999.99,1.92,2.0469999999999997,2,9,15.8,0,15.8000001907349,0.22,1468.941,04/25/18,14:36:45,10.27,0.45299999999999996,0.22,-7.496,8.32,-74.0,-0.3,-5.5,-4537,86.1,9.64,12.3,0.0,0.0
36,223793614749467.9,-107.90963122689399,14:46:52.13,4/25/2018,11,2.305,247.71,9.305718042061251,0.81,233.7,242.64,3.8,8.0,20.9,0.0,1.89,1.89,93,61,514.2,16.1,-3.7,D,563.2,1,18.347,2.5,2.39,191,243.21,-107.90981623,37.23835752,0.0,0.0,1,N,0.43893699999999997,82,82,11.0,119,119,241.4185,0,9999.99,1.92,2.0469999999999997,2,9,15.7,0,15.8000001907349,0.22,1468.94098,04/25/18,14:36:46,10.27,0.451,0.22,-7.486000000000001,8.32,-73.9,-0.9,-1.0,-3302,86.1,9.64,12.3,0.0,0.0
37,223292260169216.66,-107.909644530504,14:46:53.13,4/25/2018,11,2.363,246.43,9.305718042061251,0.81,233.6,242.54,4.13,8.5,20.9,0.0,1.99,1.99,93,61,514.2,16.1,-3.7,D,563.2,1,17.045,2.5,2.41,191,243.1,-107.90981623,37.23835752,0.0,0.0,1,N,0.44281090000000006,82,82,11.0,122,122,241.3908,0,9999.99,2.03,2.157,2,9,15.7,0,15.6999998092651,0.22,1468.5972,04/25/18,14:36:47,10.23,0.45399999999999996,0.22,-7.4879999999999995,8.35,-75.6,0.1,-6.6,-3811,86.1,9.65,12.5,0.0,0.0
38,222796997409346.88,-107.90965701162399,14:46:54.13,4/25/2018,11,2.36,245.7,9.305718042061251,0.81,234.3,243.27,4.75,7.61,21.0,0.0,1.99,1.99,93,61,514.1,16.1,-3.8,D,557.5,1,15.81,2.5,2.4,191,243.06,-107.90981623,37.23835752,0.0,0.0,1,N,0.41782179999999997,85,85,11.0,120,120,241.5693,0,9999.99,2.03,2.157,2,9,15.6,0,15.6000003814697,0.22,1468.25258,04/25/18,14:36:48,10.22,0.45399999999999996,0.22,-7.497999999999999,8.32,-74.1,-0.9,-2.4,-1641,86.1,9.66,12.5,0.0,0.0
39,222356373389231.97,-107.909668018975,14:46:55.14,4/25/2018,11,2.309,244.85,9.305718042061251,0.81,234.5,243.48,5.15,8.6,21.0,0.0,1.98,1.98,93,61,514.1,16.1,-3.8,D,557.5,1,14.719000000000001,2.5,2.38,191,243.05,-107.90981623,37.23835752,0.0,0.0,1,N,0.3927913,85,85,11.0,122,122,241.748,0,9999.99,2.02,2.147,2,9,15.6,0,15.6000003814697,0.22,1468.25258,04/25/18,14:36:49,10.26,0.455,0.22,-7.4910000000000005,8.31,-73.6,0.3,-2.8,-2207,86.1,9.65,12.3,0.0,0.0
40,221888787309154.62,-107.909680050765,14:46:56.14,4/25/2018,11,2.3040000000000003,244.62,9.305718042061251,0.81,233.8,242.75,4.3,8.2,21.0,0.0,2.18,2.18,93,61,514.1,16.1,-3.8,D,557.5,1,13.534,2.5,2.39,191,242.96,-107.90981623,37.23835752,0.0,0.0,1,N,0.3810314,84,84,11.0,123,123,241.8321,0,9999.99,2.22,2.347,2,9,15.6,0,15.6000003814697,0.22,1468.25256,04/25/18,14:36:50,10.34,0.456,0.22,-7.484,8.31,-73.6,-0.6,-1.4,-2798,86.1,9.63,12.4,0.0,0.0
41,221335231139363.5,-107.909693275329,14:46:57.17,4/25/2018,11,2.397,243.35,9.305718042061251,0.81,233.8,242.75,4.26,8.1,21.0,0.0,2.18,2.18,93,62,514.1,16.1,-3.8,D,554.2,1,12.212,2.5,2.37,191,243.04,-107.90981623,37.23835752,0.0,0.0,1,N,0.33000490000000005,83,83,11.0,125,125,242.1968,0,9999.99,2.22,2.347,2,9,15.5,0,15.6000003814697,0.22,1468.25251,04/25/18,14:36:51,10.39,0.452,0.22,-7.497999999999999,8.33,-74.7,-0.9,-3.4,-2845,86.1,9.62,12.4,0.0,0.0
42,220821942568960.6,-107.909705272498,14:46:58.17,4/25/2018,11,2.3409999999999997,243.59,9.305718042061251,0.81,233.7,242.64,3.37,7.85,21.0,0.0,2.26,2.26,93,62,514.1,16.1,-3.8,D,554.2,1,11.005999999999998,2.5,2.36,192,243.18,-107.90981623,37.23835752,0.0,0.0,1,N,0.2696348,77,77,11.0,127,127,242.6285,0,9999.99,2.3,2.427,2,9,15.5,0,15.5,0.22,1467.9066599999999,04/25/18,14:36:52,10.34,0.45399999999999996,0.22,-7.499,8.31,-73.6,0.4,-3.3,-4685,86.2,9.64,12.5,0.0,0.0
43,220302763829494.1,-107.90971805804199,14:46:59.17,4/25/2018,11,2.347,244.36,9.305718042061251,0.81,234.3,243.27,3.75,7.83,21.0,0.0,2.26,2.26,93,62,514.1,16.1,-3.8,D,554.2,1,9.736,2.5,2.38,192,243.21,-107.90981623,37.23835752,0.0,0.0,1,N,0.2345199,79,79,11.0,125,125,242.8799,0,9999.99,2.3,2.427,2,9,15.4,0,15.3999996185303,0.22,1467.56007,04/25/18,14:36:53,10.36,0.45,0.22,-7.487,8.31,-73.6,0.0,-5.8,-1266,86.1,9.63,12.5,0.0,0.0
44,219814160989528.78,-107.909729749974,14:47:00.17,4/25/2018,11,2.385,244.0,9.305718042061251,0.81,233.8,242.75,3.6,7.8,21.0,0.0,2.28,2.28,93,62,514.1,16.1,-3.8,D,554.2,1,8.567,2.5,2.37,192,243.33,-107.90981623,37.23835752,0.0,0.0,1,N,0.1882886,80,80,11.0,126,126,243.2108,0,9999.99,2.31,2.437,2,9,15.4,0,15.3999996185303,0.22,1467.56007,04/25/18,14:36:54,10.32,0.456,0.22,-7.48,8.31,-73.3,-1.0,-6.1,-3390,86.2,9.64,12.6,0.0,0.0
45,219322297819246.62,-107.909742521988,14:47:01.17,4/25/2018,12,2.4090000000000003,244.66,9.305718042061251,0.75,235.1,244.11,4.67,10.3,21.0,0.0,2.28,2.28,93,63,514.1,16.1,-3.9,D,545.2,1,7.311,2.5,2.36,192,243.19,-107.90981623,37.23835752,0.0,0.0,1,N,0.1766679,85,85,11.0,124,124,243.294,0,9999.99,2.31,2.437,2,9,15.4,0,15.3999996185303,0.22,1467.5603199999998,04/25/18,14:36:55,10.42,0.45399999999999996,0.22,-7.49,8.33,-74.3,0.7,-2.0,-2376,86.1,9.61,12.5,0.0,0.0
46,218800160458698.66,-107.909755855498,14:47:02.17,4/25/2018,12,2.399,244.6,9.305718042061251,0.75,234.8,243.79,4.54,8.4,21.0,0.0,2.35,2.36,93,63,514.1,16.1,-3.9,D,545.2,1,5.996,2.5,2.38,192,243.05,-107.90981623,37.23835752,0.0,0.0,1,N,0.1611997,81,81,11.0,128,128,243.4046,0,9999.99,2.39,2.517,2,9,15.4,0,15.3999996185303,0.22,1467.56031,04/25/18,14:36:56,10.38,0.45399999999999996,0.22,-7.504,8.31,-73.3,-0.3,-3.3,-2874,86.2,9.64,12.4,0.0,0.0
47,218293729039231.72,-107.909768724723,14:47:03.17,4/25/2018,12,2.501,244.5,9.305718042061251,0.75,236.0,245.05,4.73,8.5,21.0,0.0,2.35,2.36,93,63,514.1,16.1,-3.9,D,545.2,1,4.726,2.5,2.39,192,242.87,-107.90981623,37.23835752,0.0,0.0,1,N,0.1375799,85,85,11.0,121,121,243.5738,0,9999.99,2.39,2.517,2,9,15.3,0,15.3000001907349,0.22,1467.2128699999998,04/25/18,14:36:57,10.38,0.45399999999999996,0.22,-7.502999999999999,8.31,-73.4,-0.9,-0.4,-1002,86.3,9.64,12.4,0.0,0.0
48,217847129258785.8,-107.909781289617,14:47:04.17,4/25/2018,12,2.406,245.49,9.305718042061251,0.75,236.5,245.57,5.16,9.2,21.0,0.0,2.35,2.36,93,62,514.0,16.1,-3.8,D,550.2,1,3.51,2.5,2.41,192,241.81,-107.90981623,37.23835752,0.0,0.0,1,N,0.1642385,88,88,11.0,118,118,243.38299999999998,0,9999.99,2.39,2.517,2,9,15.3,0,15.3000001907349,0.22,1467.21307,04/25/18,14:36:58,10.39,0.45399999999999996,0.22,-7.507000000000001,8.3,-73.1,-0.1,-4.7,-2815,86.3,9.64,12.3,0.0,0.0
49,217334409668978.88,-107.909794543622,14:47:05.17,4/25/2018,12,2.46,244.97,9.305718042061251,0.75,235.3,244.32,4.53,8.5,21.0,0.0,2.49,2.49,93,62,514.0,16.1,-3.8,D,550.2,2,59.631,2.5,2.43,192,271.49,-107.91046792,37.238381200000006,0.0,0.0,1,N,0.15623779999999998,84,84,11.0,205,205,263.7902,0,9999.99,2.53,2.657,2,9,15.3,0,15.3000001907349,0.22,1467.213,04/25/18,14:36:59,10.42,0.452,0.22,-7.504,8.32,-74.2,-0.6,-3.1,-4017,86.3,9.64,12.5,0.0,0.0
50,216885191769478.06,-107.90980745361,14:47:06.17,4/25/2018,12,2.375,245.35,9.305718042061251,0.75,240.2,249.44,3.95,13.6,21.0,0.0,2.49,2.49,93,62,514.0,16.1,-3.8,D,550.2,2,58.504,2.5,2.44,192,272.0,-107.91046792,37.238381200000006,0.0,0.0,1,N,0.6801911999999999,81,81,11.0,210,210,268.5121,0,9999.99,2.53,2.657,2,9,15.3,0,15.3000001907349,0.22,1467.2128,04/25/18,14:37:00,10.36,0.45299999999999996,0.22,-7.521,8.31,-73.2,-0.9,-4.7,-4125,86.4,9.65,12.4,0.0,0.0
51,216531675859243.94,-107.90982059456499,14:47:07.19,4/25/2018,12,2.256,244.13,9.305718042061251,0.75,252.1,261.8,4.59,13.1,21.0,0.0,2.58,2.58,93,62,514.0,16.1,-3.8,D,550.2,2,57.357,2.5,2.39,192,272.44,-107.91046792,37.238381200000006,0.0,0.0,1,N,0.2038886,85,85,11.0,164,164,271.1558,0,9999.99,2.61,2.737,2,9,15.2,0,15.1999998092651,0.22,1466.86443,04/25/18,14:37:01,10.31,0.45299999999999996,0.22,-7.497000000000001,8.31,-73.3,-0.1,-2.7,-1354,86.4,9.67,12.5,0.0,0.0
52,216323843259402.78,-107.90983324204201,14:47:08.19,4/25/2018,12,2.222,249.75,9.305718042061251,0.75,259.5,269.43,5.54,6.51,21.0,0.0,2.58,2.58,93,66,514.0,16.1,-4.0,D,522.1,2,56.248999999999995,2.5,2.32,192,272.72,-107.91046792,37.238381200000006,0.0,0.0,1,N,0.09854572,90,90,11.0,143,143,273.3194,0,9999.99,2.61,2.737,2,9,15.2,0,15.1999998092651,0.22,1466.86477,04/25/18,14:37:02,10.28,0.45299999999999996,0.22,-7.502999999999999,8.3,-73.0,-0.3,-4.2,826,86.4,9.68,12.4,0.0,0.0
53,216219070299672.47,-107.90984599307801,14:47:09.19,4/25/2018,12,2.369,258.26,9.305718042061251,0.75,262.1,272.11,4.28,8.3,21.0,0.0,2.65,2.66,93,66,514.0,16.1,-4.0,D,522.1,2,55.126999999999995,2.5,2.33,192,272.9,-107.91046792,37.238381200000006,0.0,0.0,1,N,0.27349650000000003,83,83,11.0,137,137,274.5716,0,9999.99,2.7,2.827,2,9,15.2,0,15.1999998092651,0.22,1466.86485,04/25/18,14:37:03,10.24,0.452,0.22,-7.523,8.33,-74.4,-1.0,-5.9,-2988,86.4,9.68,12.5,0.0,0.0
54,216224151839838.9,-107.90985919593099,14:47:10.20,4/25/2018,12,2.37,264.57,9.305718042061251,0.75,263.3,273.34,3.46,8.2,21.0,0.0,2.65,2.65,93,66,514.0,16.1,-4.0,D,522.1,2,53.958999999999996,2.5,2.34,192,272.95,-107.91046792,37.238381200000006,0.0,0.0,1,N,0.32386950000000003,78,78,11.0,135,135,274.9319,0,9999.99,2.7,2.827,2,9,15.2,0,15.1999998092651,0.22,1466.8647,04/25/18,14:37:04,10.21,0.455,0.22,-7.495,8.31,-73.2,-0.5,-1.8,572,86.4,9.69,12.4,0.0,0.0
55,216272677099738.06,-107.909872794634,14:47:11.20,4/25/2018,12,2.391,268.44,9.305718042061251,0.75,264.3,274.36,3.73,9.3,21.0,0.0,2.69,2.69,93,63,514.0,16.1,-3.9,D,545.1,2,52.754,2.5,2.39,192,272.96,-107.91046792,37.238381200000006,0.0,0.0,1,N,0.3261163,78,78,11.0,131,131,274.9478,0,9999.99,2.72,2.847,2,9,15.1,0,15.1000003814697,0.22,1466.5151,04/25/18,14:37:05,10.22,0.45399999999999996,0.22,-7.499,8.31,-73.1,-0.4,0.0,-4919,86.3,9.68,12.5,0.0,0.0
56,216357202999972.75,-107.909886904571,14:47:12.20,4/25/2018,12,2.43,271.03,9.305718042061251,0.75,265.0,275.08,3.7,7.7,21.0,0.0,2.69,2.69,93,63,514.0,16.1,-3.9,D,545.1,2,51.501999999999995,2.5,2.41,192,272.93,-107.91046792,37.238381200000006,0.0,0.0,1,N,0.2919637,79,79,11.0,126,126,274.7038,0,9999.99,2.72,2.847,2,9,15.1,0,15.1000003814697,0.22,1466.5151,04/25/18,14:37:06,10.2,0.45299999999999996,0.22,-7.499,8.3,-72.8,-0.2,-6.8,-5738,86.3,9.69,12.4,0.0,0.0
57,216459911699473.66,-107.909900879323,14:47:13.20,4/25/2018,12,2.405,273.2,9.305718042061251,0.75,266.5,276.61,4.52,9.1,21.0,0.0,2.69,2.69,93,63,514.0,16.1,-3.9,D,545.1,2,50.261,2.5,2.4,192,272.87,-107.91046792,37.238381200000006,0.0,0.0,1,N,0.2397369,86,86,11.0,115,115,274.3303,0,9999.99,2.72,2.847,2,9,15.1,0,15.1000003814697,0.22,1466.51511,04/25/18,14:37:07,10.3,0.45799999999999996,0.22,-7.497999999999999,8.33,-74.6,-0.2,-3.6,-3071,86.4,9.67,12.4,0.0,0.0
58,216531581109080.66,-107.909915407144,14:47:14.20,4/25/2018,11,2.384,273.51,9.305718042061251,0.79,265.5,275.59,4.09,9.7,21.0,0.0,2.69,2.7,93,63,514.0,16.1,-3.9,D,545.1,2,48.972,2.5,2.4,192,272.85,-107.91046792,37.238381200000006,0.0,0.0,1,N,0.21745540000000002,83,83,11.0,120,120,274.1707,0,9999.99,2.73,2.8569999999999998,2,9,15.1,0,15.1000003814697,0.22,1466.51525,04/25/18,14:37:08,10.46,0.45399999999999996,0.22,-7.5120000000000005,8.31,-73.3,-0.5,-0.5,-3141,86.4,9.63,12.4,0.0,0.0
59,216582872999282.47,-107.909928639514,14:47:15.20,4/25/2018,12,2.4819999999999998,273.28,9.305718042061251,0.79,265.0,275.08,3.74,7.52,21.0,0.0,2.69,2.69,93,63,513.9,16.1,-3.9,D,542.8,2,47.799,2.5,2.44,192,272.86,-107.91046792,37.238381200000006,0.0,0.0,1,N,0.2080103,79,79,11.0,123,123,274.1031,0,9999.99,2.73,2.8569999999999998,2,9,15.0,0,15.0,0.22,1466.16504,04/25/18,14:37:09,10.58,0.457,0.22,-7.5120000000000005,8.3,-73.1,0.0,-5.2,-2203,86.5,9.62,12.4,0.0,0.0
60,216674419899476.34,-107.909942447799,14:47:16.20,4/25/2018,12,2.485,274.57,9.305718042061251,0.79,267.1,277.23,4.73,8.3,21.0,0.0,2.69,2.69,93,63,513.9,16.1,-3.9,D,542.8,2,46.574,2.5,2.47,192,272.81,-107.91046792,37.238381200000006,0.0,0.0,1,N,0.1666608,85,85,11.0,113,113,273.8073,0,9999.99,2.73,2.8569999999999998,2,9,15.0,0,15.0,0.22,1466.16502,04/25/18,14:37:10,10.68,0.45399999999999996,0.22,-7.506,8.3,-72.8,0.0,-1.9,-2938,86.6,9.61,12.5,0.0,0.0
61,216793003689730.3,-107.90995918903099,14:47:17.22,4/25/2018,12,2.4419999999999997,274.91,9.305718042061251,0.75,265.5,275.59,4.28,8.4,21.0,0.0,2.69,2.69,93,63,513.9,16.1,-3.9,D,542.8,2,45.086999999999996,2.5,2.49,192,272.73,-107.91046792,37.238381200000006,0.0,0.0,1,N,0.09752593,83,83,11.0,118,118,273.3122,0,9999.99,2.73,2.8569999999999998,2,9,15.0,0,15.0,0.22,1466.1652800000002,04/25/18,14:37:11,10.71,0.45399999999999996,0.22,-7.5089999999999995,8.34,-75.1,-1.1,-3.2,-1071,86.7,9.61,12.5,0.0,0.0
62,216883322909211.53,-107.90997310361601,14:47:18.23,4/25/2018,12,2.4290000000000003,274.56,9.305718042061251,0.75,266.5,276.61,4.9,8.6,21.1,0.0,2.66,2.66,93,63,513.9,16.1,-3.9,D,542.8,2,43.852,2.5,2.48,192,272.68,-107.91046792,37.238381200000006,0.0,0.0,1,N,0.05557049,86,86,11.0,113,113,273.0118,0,9999.99,2.7,2.827,2,9,15.0,0,15.0,0.22,1466.16513,04/25/18,14:37:12,10.72,0.45399999999999996,0.22,-7.502999999999999,8.31,-73.7,-0.6,-3.7,-3976,86.8,9.62,12.4,0.0,0.0
63,216965527099688.4,-107.909987096845,14:47:19.25,4/25/2018,12,2.388,274.5,9.305718042061251,0.75,263.6,273.64,3.71,8.1,21.1,0.0,2.66,2.66,93,62,513.9,16.1,-3.8,D,552.3,2,42.61,2.5,2.52,192,272.63,-107.91046792,37.238381200000006,0.0,0.0,1,N,0.009650103,79,79,11.0,123,123,272.683,0,9999.99,2.7,2.827,2,9,15.0,0,15.0,0.22,1466.16516,04/25/18,14:37:13,10.75,0.45399999999999996,0.22,-7.51,8.3,-73.2,-0.3,-2.6,-2657,87.0,9.63,12.6,0.0,0.0
64,217072217299829.62,-107.91000112211,14:47:20.25,4/25/2018,12,2.472,274.34,9.305718042061251,0.75,266.4,276.51,5.24,8.6,21.0,0.0,2.66,2.66,93,62,513.9,16.1,-3.8,D,552.3,2,41.364,2.5,2.47,192,272.55,-107.91046792,37.238381200000006,0.0,0.0,1,N,0.04472863,88,88,11.0,110,110,272.2936,0,9999.99,2.7,2.827,2,9,15.0,0,15.0,0.22,1466.1652,04/25/18,14:37:14,10.77,0.45399999999999996,0.22,-7.51,8.3,-73.0,-1.0,-1.5,-4056,87.1,9.64,12.4,0.0,0.0
65,217155867339613.44,-107.91001593588499,14:47:21.25,4/25/2018,12,2.487,274.02,9.305718042061251,0.75,266.0,276.1,4.92,6.77,21.0,0.0,2.6,2.61,93,62,513.9,16.1,-3.8,D,552.3,2,40.05,2.5,2.47,192,272.5,-107.91046792,37.238381200000006,0.0,0.0,1,N,0.07715019,87,87,11.0,111,111,272.0613,0,9999.99,2.65,2.7769999999999997,2,9,15.0,0,15.0,0.22,1466.16527,04/25/18,14:37:15,10.78,0.45399999999999996,0.22,-7.521,8.35,-75.6,0.0,-2.6,-4062,87.2,9.65,12.4,0.0,0.0
66,217253661449490.22,-107.910029177244,14:47:22.25,4/25/2018,12,2.42,274.14,9.305718042061251,0.75,264.8,274.87,4.44,7.28,21.1,0.0,2.6,2.61,93,62,513.9,16.1,-3.8,D,548.5,2,38.874,2.5,2.46,192,272.41,-107.91046792,37.238381200000006,0.0,0.0,1,N,0.1354536,84,84,11.0,114,114,271.6439,0,9999.99,2.65,2.7769999999999997,2,9,15.0,0,15.0,0.22,1466.16535,04/25/18,14:37:16,10.79,0.45299999999999996,0.22,-7.506,8.32,-73.9,-0.4,-4.2,-928,87.2,9.65,12.3,0.0,0.0
67,217311773899808.72,-107.91004281636101,14:47:23.25,4/25/2018,12,2.384,274.06,9.305718042061251,0.75,265.5,275.59,4.74,7.71,21.1,0.0,2.65,2.65,93,62,513.9,16.1,-3.8,D,548.5,2,37.665,2.5,2.48,192,272.39,-107.91046792,37.238381200000006,0.0,0.0,1,N,0.1440779,85,85,11.0,111,111,271.5822,0,9999.99,2.69,2.8169999999999997,2,9,15.0,0,15.0,0.22,1466.16514,04/25/18,14:37:17,10.78,0.45299999999999996,0.22,-7.525,8.3,-73.1,-1.1,-4.5,-475,87.3,9.66,12.5,0.0,0.0
68,217407423568971.6,-107.910057616352,14:47:24.27,4/25/2018,12,2.448,273.83,9.305718042061251,0.75,265.1,275.18,4.79,8.5,21.0,0.0,2.65,2.65,93,62,513.9,16.1,-3.8,D,548.5,2,36.352,2.5,2.47,192,272.31,-107.91046792,37.238381200000006,0.0,0.0,1,N,0.19038129999999998,86,86,11.0,111,111,271.2507,0,9999.99,2.69,2.8169999999999997,2,9,15.0,0,15.0,0.22,1466.16516,04/25/18,14:37:18,10.76,0.45299999999999996,0.22,-7.511,8.3,-72.8,-0.8,-4.2,-2083,87.3,9.67,12.6,0.0,0.0
69,217467516229419.28,-107.910071811952,14:47:25.27,4/25/2018,12,2.45,273.25,9.305718042061251,0.75,263.7,273.75,4.38,10.1,21.0,0.0,2.49,2.49,93,62,513.9,16.1,-3.8,D,548.5,2,35.094,2.5,2.48,192,272.28,-107.91046792,37.238381200000006,0.0,0.0,1,N,0.2011975,86,86,11.0,114,114,271.1733,0,9999.99,2.53,2.657,2,9,15.0,0,15.0,0.22,1466.1652,04/25/18,14:37:19,10.72,0.45299999999999996,0.22,-7.513999999999999,8.31,-73.4,-0.6,-2.3,-261,87.4,9.68,12.6,0.0,0.0
70,217539403799804.62,-107.910085536372,14:47:26.28,4/25/2018,12,2.435,272.61,9.305718042061251,0.75,265.6,275.69,5.21,8.6,21.1,0.0,2.49,2.49,93,62,513.8,16.1,-3.8,D,553.4,2,33.876,2.5,2.47,192,272.23,-107.91046792,37.238381200000006,0.0,0.0,1,N,0.22230770000000002,88,88,11.0,108,108,271.0222,0,9999.99,2.53,2.657,2,9,15.0,0,15.0,0.22,1466.16511,04/25/18,14:37:20,10.69,0.45299999999999996,0.22,-7.535,8.32,-74.2,0.1,-7.6,-2478,87.4,9.69,12.3,0.0,0.0
71,217574682499588.34,-107.910100150846,14:47:27.30,4/25/2018,12,2.438,272.71,9.305718042061251,0.75,264.2,274.26,4.42,7.5,21.0,0.0,2.46,2.46,93,62,513.8,16.1,-3.8,D,553.4,2,32.582,2.5,2.48,192,272.25,-107.91046792,37.238381200000006,0.0,0.0,1,N,0.2075235,84,84,11.0,116,116,271.1281,0,9999.99,2.5,2.627,2,9,15.0,0,15.0,0.22,1466.16525,04/25/18,14:37:21,10.66,0.45299999999999996,0.22,-7.524,8.3,-73.1,-0.1,-4.8,-2826,87.4,9.7,12.6,0.0,0.0
72,217629882189385.16,-107.910114626749,14:47:28.30,4/25/2018,12,2.451,273.11,9.305718042061251,0.75,265.0,275.08,5.24,9.5,21.1,0.0,2.46,2.46,93,62,513.8,16.1,-3.8,D,553.4,2,31.299,2.5,2.45,192,272.23,-107.91046792,37.238381200000006,0.0,0.0,1,N,0.20494720000000002,87,87,11.0,113,113,271.1465,0,9999.99,2.5,2.627,2,9,15.0,0,15.0,0.22,1466.16526,04/25/18,14:37:22,10.63,0.45299999999999996,0.22,-7.542000000000001,8.3,-72.7,-0.3,-2.6,-2352,87.3,9.7,12.6,0.0,0.0
73,217665354039553.44,-107.910128125427,14:47:29.30,4/25/2018,12,2.458,272.36,9.305718042061251,0.75,262.2,272.21,4.15,8.5,21.0,0.0,2.46,2.46,93,62,513.8,16.1,-3.8,D,550.9,2,30.104,2.5,2.45,192,272.24,-107.91046792,37.238381200000006,0.0,0.0,1,N,0.1964967,82,82,11.0,123,123,271.207,0,9999.99,2.5,2.627,2,9,15.0,0,15.0,0.22,1466.16515,04/25/18,14:37:23,10.58,0.452,0.22,-7.542999999999999,8.31,-73.2,0.1,-5.5,-2160,87.4,9.72,12.6,0.0,0.0
74,217705741649609.75,-107.91014184449301,14:47:30.30,4/25/2018,12,2.484,272.28,9.305718042061251,0.75,262.2,272.21,4.3,8.5,21.1,0.0,2.4,2.4,93,62,513.8,16.1,-3.8,D,550.9,2,28.888,2.5,2.43,192,272.25,-107.91046792,37.238381200000006,0.0,0.0,1,N,0.18823710000000002,81,81,11.0,127,127,271.2661,0,9999.99,2.44,2.5669999999999997,2,9,15.0,0,15.0,0.22,1466.16501,04/25/18,14:37:24,10.52,0.452,0.22,-7.535,8.33,-74.5,-0.2,-6.3,-2338,87.4,9.73,12.4,0.0,0.0
75,217706701359077.22,-107.910158086274,14:47:31.30,4/25/2018,12,2.465,271.14,9.305718042061251,0.75,263.1,273.13,4.76,9.3,21.1,0.0,2.4,2.4,93,62,513.8,16.1,-3.8,D,550.9,2,27.451999999999998,2.5,2.42,192,272.36,-107.91046792,37.238381200000006,0.0,0.0,1,N,0.1196999,86,86,11.0,122,122,271.7567,0,9999.99,2.44,2.5669999999999997,2,9,15.0,0,15.0,0.22,1466.165,04/25/18,14:37:25,10.47,0.45399999999999996,0.22,-7.535,8.3,-73.1,-0.3,-1.9,-1510,87.4,9.74,12.6,0.0,0.0
76,217710825858574.72,-107.910170941787,14:47:32.30,4/25/2018,12,2.4819999999999998,271.37,9.305718042061251,0.75,262.5,272.52,4.37,8.4,21.1,0.0,2.44,2.44,93,62,513.8,16.1,-3.8,D,550.9,2,26.314,2.5,2.48,192,272.45,-107.91046792,37.238381200000006,0.0,0.0,1,N,0.0751897,83,83,11.0,125,125,272.0755,0,9999.99,2.48,2.6069999999999998,2,9,15.0,0,15.0,0.22,1466.16506,04/25/18,14:37:26,10.46,0.45299999999999996,0.22,-7.531000000000001,8.29,-72.6,-0.3,-5.6,-4211,87.3,9.74,12.4,0.0,0.0
77,217735594318924.1,-107.91018556428001,14:47:33.30,4/25/2018,12,2.51,271.2,9.305718042061251,0.75,264.4,274.46,4.82,8.6,21.1,0.0,2.44,2.44,93,63,513.7,16.1,-3.9,D,545.7,2,25.02,2.5,2.49,192,272.52,-107.91046792,37.238381200000006,0.0,0.0,1,N,0.03959617,86,86,11.0,118,118,272.3304,0,9999.99,2.48,2.6069999999999998,2,9,14.9,0,14.8999996185303,0.22,1465.81412,04/25/18,14:37:27,10.42,0.452,0.22,-7.5489999999999995,8.3,-73.0,-0.6,-3.1,-4765,87.3,9.74,12.5,0.0,0.0
78,217787507979494.4,-107.910199825346,14:47:34.30,4/25/2018,12,2.505,271.5,9.305718042061251,0.75,265.3,275.39,4.64,6.8,21.1,0.0,2.44,2.44,93,63,513.7,16.1,-3.9,D,545.7,2,23.756,2.5,2.49,192,272.51,-107.91046792,37.238381200000006,0.0,0.0,1,N,0.03602325,85,85,11.0,115,115,272.3559,0,9999.99,2.48,2.6069999999999998,2,9,14.9,0,14.8999996185303,0.22,1465.81413,04/25/18,14:37:28,10.3,0.45,0.22,-7.5360000000000005,8.33,-74.8,-0.7,1.5,-3713,87.3,9.77,12.4,0.0,0.0
79,217906989979610.44,-107.910214508181,14:47:35.31,4/25/2018,12,2.4659999999999997,273.45,9.305718042061251,0.75,266.5,276.61,4.94,8.4,21.1,0.0,2.44,2.44,93,63,513.7,16.1,-3.9,D,545.7,2,22.451999999999998,2.5,2.51,192,272.32,-107.91046792,37.238381200000006,0.0,0.0,1,N,0.1018961,87,87,11.0,108,108,271.8842,0,9999.99,2.48,2.6069999999999998,2,9,14.9,0,14.8999996185303,0.22,1465.81409,04/25/18,14:37:29,10.22,0.457,0.22,-7.54,8.31,-73.1,-0.9,-3.1,-1918,87.3,9.79,12.4,0.0,0.0
80,218014693279400.25,-107.910230412092,14:47:36.33,4/25/2018,12,2.441,274.63,9.305718042061251,0.75,265.5,275.59,4.93,6.97,21.1,0.0,2.44,2.44,93,62,513.7,16.1,-3.8,D,548.3,2,21.04,2.5,2.59,192,272.15,-107.91046792,37.238381200000006,0.0,0.0,1,N,0.1644388,87,87,11.0,110,110,271.4363,0,9999.99,2.48,2.6069999999999998,2,9,14.9,0,14.8999996185303,0.22,1465.81418,04/25/18,14:37:30,10.38,0.457,0.22,-7.542999999999999,8.29,-72.2,-0.2,-0.2,-1139,87.1,9.73,12.6,0.0,0.0
81,218129391839738.7,-107.91024377686199,14:47:37.33,4/25/2018,12,2.418,275.74,9.305718042061251,0.75,264.6,274.67,4.64,9.1,21.1,0.0,2.42,2.42,93,62,513.7,16.1,-3.8,D,548.3,2,19.852999999999998,2.5,2.54,192,271.91,-107.91046792,37.238381200000006,0.0,0.0,1,N,0.2398281,87,87,11.0,110,110,270.8967,0,9999.99,2.46,2.5869999999999997,2,9,14.9,0,14.8999996185303,0.22,1465.8142,04/25/18,14:37:31,10.49,0.45299999999999996,0.22,-7.555,8.3,-72.8,-0.2,-4.0,-4080,87.0,9.69,12.6,0.0,0.0
82,218249528059288.88,-107.910256502283,14:47:38.33,4/25/2018,12,2.465,275.1,9.305718042061251,0.75,264.9,274.98,5.06,8.6,21.1,0.0,2.42,2.42,93,62,513.7,16.1,-3.8,D,548.3,2,18.723,2.5,2.52,192,271.62,-107.91046792,37.238381200000006,0.0,0.0,1,N,0.3197581,87,87,11.0,108,108,270.325,0,9999.99,2.46,2.5869999999999997,2,9,14.8,0,14.8999996185303,0.22,1465.8142,04/25/18,14:37:32,10.46,0.456,0.22,-7.56,8.3,-72.7,-0.6,-3.0,-3464,87.0,9.7,12.4,0.0,0.0
83,218344610629372.94,-107.910270251076,14:47:39.33,4/25/2018,12,2.468,274.83,9.305718042061251,0.75,263.3,273.34,4.69,9.2,21.2,0.0,2.45,2.45,93,62,513.7,16.1,-3.8,D,548.3,2,17.504,2.5,2.54,192,271.38,-107.91046792,37.238381200000006,0.0,0.0,1,N,0.36824090000000004,87,87,11.0,110,110,269.9783,0,9999.99,2.49,2.617,2,9,14.8,0,14.8000001907349,0.22,1465.46234,04/25/18,14:37:33,10.47,0.452,0.22,-7.556,8.31,-73.3,-0.8,-3.9,-3544,87.0,9.7,12.4,0.0,0.0
84,218402515839244.4,-107.910284731345,14:47:40.33,4/25/2018,12,2.386,274.46,9.305718042061251,0.75,262.0,272.0,4.06,8.3,21.2,0.0,2.45,2.45,93,63,513.6,16.1,-3.9,D,546.4,2,16.221,2.5,2.55,192,271.26,-107.91046792,37.238381200000006,0.0,0.0,1,N,0.381288,81,81,11.0,119,119,269.8851,0,9999.99,2.49,2.617,2,9,14.8,0,14.8000001907349,0.22,1465.4623199999999,04/25/18,14:37:34,10.35,0.451,0.22,-7.547999999999999,8.29,-72.2,0.0,-3.4,-3581,87.1,9.73,12.6,0.0,0.0
85,218475805359474.88,-107.91029948751199,14:47:41.33,4/25/2018,12,2.3930000000000002,274.41,9.305718042061251,0.75,262.3,272.31,4.09,7.7,21.1,0.0,2.44,2.44,93,63,513.6,16.1,-3.9,D,546.4,2,14.913,2.5,2.56,192,271.06,-107.91046792,37.238381200000006,0.0,0.0,1,N,0.4024428,82,82,11.0,117,117,269.7339,0,9999.99,2.47,2.597,2,9,14.8,0,14.8000001907349,0.22,1465.46223,04/25/18,14:37:35,10.29,0.456,0.22,-7.545,8.3,-72.9,-0.6,-0.8,-1269,87.1,9.75,12.6,0.0,0.0
86,218562412309353.25,-107.910312800302,14:47:42.33,4/25/2018,12,2.448,273.47,9.305718042061251,0.79,263.7,273.75,4.82,8.8,21.1,0.0,2.44,2.44,93,63,513.6,16.1,-3.9,D,546.4,2,13.732999999999999,2.5,2.46,192,270.75,-107.91046792,37.238381200000006,0.0,0.0,1,N,0.44112120000000005,84,84,11.0,113,113,269.4576,0,9999.99,2.47,2.597,2,9,14.8,0,14.8000001907349,0.22,1465.46206,04/25/18,14:37:36,10.3,0.45299999999999996,0.22,-7.537000000000001,8.29,-72.5,-0.8,-4.5,-4076,87.0,9.74,12.3,0.0,0.0
87,218603606089118.34,-107.91032625856899,14:47:43.33,4/25/2018,12,2.432,272.73,9.305718042061251,0.79,262.2,272.21,3.9,6.8,21.1,0.0,2.44,2.44,93,62,513.6,16.1,-3.8,D,547.9,2,12.542,2.5,2.44,192,270.61,-107.91046792,37.238381200000006,0.0,0.0,1,N,0.43428310000000003,80,80,11.0,116,116,269.5064,0,9999.99,2.47,2.597,2,9,14.8,0,14.8000001907349,0.22,1465.46208,04/25/18,14:37:37,10.28,0.45299999999999996,0.22,-7.53,8.29,-72.4,-0.4,-5.4,-4317,87.0,9.74,12.4,0.0,0.0
88,218665770639603.34,-107.91034010821801,14:47:44.33,4/25/2018,12,2.377,273.08,9.305718042061251,0.75,262.5,272.52,4.21,7.22,21.1,0.0,2.51,2.51,93,62,513.6,16.1,-3.8,D,547.9,2,11.315,2.5,2.45,192,270.33,-107.91046792,37.238381200000006,0.0,0.0,1,N,0.4471451,82,82,11.0,115,115,269.4145,0,9999.99,2.54,2.667,2,9,14.7,0,14.6999998092651,0.22,1465.10924,04/25/18,14:37:38,10.33,0.45399999999999996,0.22,-7.534,8.33,-74.4,-0.3,-1.8,-4131,86.9,9.72,12.4,0.0,0.0
89,218754080499650.2,-107.910354172886,14:47:45.33,4/25/2018,12,2.3480000000000003,273.94,9.305718042061251,0.75,261.9,271.9,3.67,7.75,21.2,0.0,2.51,2.51,93,62,513.6,16.1,-3.8,D,547.9,2,10.068999999999999,2.5,2.44,192,269.81,-107.91046792,37.238381200000006,0.0,0.0,1,N,0.4911566,79,79,11.0,115,115,269.1008,0,9999.99,2.54,2.667,2,9,14.7,0,14.6999998092651,0.22,1465.10924,04/25/18,14:37:39,10.37,0.452,0.22,-7.546,8.31,-73.2,-0.3,0.8,-3853,86.8,9.7,12.6,0.0,0.0
90,218836686129719.75,-107.91036912167401,14:47:46.33,4/25/2018,12,2.375,273.21,9.305718042061251,0.75,263.0,273.03,4.23,7.17,21.2,0.0,2.54,2.54,93,62,513.6,16.1,-3.8,D,547.9,2,8.747,2.5,2.46,192,269.18,-107.91046792,37.238381200000006,0.0,0.0,1,N,0.517682,82,82,11.0,111,111,268.9114,0,9999.99,2.57,2.697,2,9,14.7,0,14.6999998092651,0.22,1465.10925,04/25/18,14:37:40,10.38,0.455,0.22,-7.542999999999999,8.29,-72.1,-0.1,0.5,-2972,86.8,9.7,12.5,0.0,0.0
91,218891879929117.28,-107.910383252852,14:47:47.33,4/25/2018,12,2.392,273.01,9.305718042061251,0.75,262.7,272.72,4.11,7.31,21.2,0.0,2.54,2.54,93,62,513.5,16.1,-3.8,D,551.5,2,7.497999999999999,2.5,2.42,192,268.58,-107.91046792,37.238381200000006,0.0,0.0,1,N,0.5238389,82,82,11.0,112,112,268.8675,0,9999.99,2.57,2.697,2,9,14.7,0,14.6999998092651,0.22,1465.1093,04/25/18,14:37:41,10.46,0.455,0.22,-7.553,8.29,-72.2,0.2,-2.8,-4137,86.7,9.68,12.5,0.0,0.0
92,218952398969207.72,-107.91039628993299,14:47:48.33,4/25/2018,12,2.4019999999999997,273.27,9.305718042061251,0.75,262.8,272.82,4.37,7.71,21.2,0.0,2.56,2.56,93,62,513.5,16.1,-3.8,D,551.5,2,6.347,2.5,2.44,192,267.71,-107.91046792,37.238381200000006,0.0,0.0,1,N,0.5389691999999999,83,83,11.0,111,111,268.7593,0,9999.99,2.6,2.727,2,9,14.7,0,14.6999998092651,0.22,1465.1093,04/25/18,14:37:42,10.5,0.45399999999999996,0.22,-7.542999999999999,8.29,-72.1,-0.4,-4.5,-1721,86.8,9.67,12.5,0.0,0.0
93,218976050199870.53,-107.91040964454099,14:47:49.33,4/25/2018,12,2.375,273.16,9.305718042061251,0.75,262.2,272.21,4.26,8.0,21.2,0.0,2.56,2.56,93,62,513.5,16.1,-3.8,D,551.5,2,5.167000000000001,2.5,2.44,192,266.89,-107.91046792,37.238381200000006,0.0,0.0,1,N,0.5162471,80,80,11.0,118,118,268.9218,0,9999.99,2.6,2.727,2,9,14.6,0,14.6000003814697,0.22,1464.75557,04/25/18,14:37:43,10.48,0.451,0.22,-7.54,8.31,-73.6,-1.1,-1.9,-2937,86.8,9.68,12.6,0.0,0.0
94,219053725389528.6,-107.910423348999,14:47:50.33,4/25/2018,12,2.392,272.46,9.305718042061251,0.75,262.7,272.72,4.38,6.74,21.1,0.0,2.61,2.61,93,62,513.5,16.1,-3.8,D,550.8,2,3.9619999999999997,2.5,2.46,192,264.7,-107.91046792,37.238381200000006,0.0,0.0,1,N,0.5404515000000001,84,84,11.0,110,110,268.7489,0,9999.99,2.65,2.7769999999999997,2,9,14.6,0,14.6000003814697,0.22,1464.75555,04/25/18,14:37:44,10.42,0.45299999999999996,0.22,-7.537999999999999,8.29,-72.5,-1.1,-6.3,-2084,86.8,9.69,12.3,0.0,0.0
95,219093640279766.06,-107.910437309411,14:47:51.33,4/25/2018,12,2.423,272.25,9.305718042061251,0.75,261.2,271.18,3.9,8.5,21.2,0.0,2.61,2.61,93,63,513.5,16.1,-3.9,D,546.1,3,225.422,2.5,2.44,192,127.75,-107.90842397,37.23714371,0.0,0.0,1,N,0.5280363,83,83,11.0,5,5,141.8721,0,9999.99,2.65,2.7769999999999997,2,9,14.6,0,14.6000003814697,0.22,1464.75571,04/25/18,14:37:45,10.38,0.45299999999999996,0.22,-7.545,8.29,-72.3,-0.5,-3.7,-2110,86.9,9.7,12.4,0.0,0.0
96,219096279589336.97,-107.91045133329,14:47:52.33,4/25/2018,12,2.445,271.98,9.305718042061251,0.75,255.2,265.01,3.09,-0.54,21.2,0.0,2.61,2.61,93,63,513.5,16.1,-3.9,D,546.1,3,226.407,2.5,2.45,192,127.56,-107.90842397,37.23714371,0.0,0.0,1,N,1.304824,76,76,11.0,5,5,136.5163,0,9999.99,2.65,2.7769999999999997,2,9,14.6,0,14.6000003814697,0.22,1464.75564,04/25/18,14:37:46,10.37,0.455,0.22,-7.537999999999999,8.29,-72.0,-0.1,-1.7,-1517,86.9,9.71,12.3,0.0,0.0
97,218932948659045.22,-107.910464892587,14:47:53.33,4/25/2018,12,2.191,272.93,9.305718042061251,0.75,242.0,251.32,4.33,1.92,21.2,0.0,2.64,2.64,93,63,513.5,16.1,-3.9,D,546.1,3,227.24900000000002,2.5,2.39,192,127.34,-107.90842397,37.23714371,0.0,0.0,1,N,0.46890470000000006,82,82,11.0,5,5,130.6003,0,9999.99,2.67,2.7969999999999997,2,9,14.6,0,14.6000003814697,0.22,1464.75551,04/25/18,14:37:47,10.44,0.45399999999999996,0.22,-7.55,8.32,-74.2,-0.8,-0.8,-3965,86.9,9.69,12.5,0.0,0.0
98,218736412319486.8,-107.910474960177,14:47:54.33,4/25/2018,12,2.095,270.32,9.305718042061251,0.78,228.6,237.29,4.3,2.25,21.2,0.0,2.64,2.65,93,64,513.5,16.1,-4.0,D,531.0,3,227.826,2.5,2.26,193,127.16,-107.90842397,37.23714371,0.0,0.0,1,N,0.23134929999999998,83,83,11.0,5,5,125.7581,0,9999.99,2.67,2.7969999999999997,2,9,14.6,0,14.6000003814697,0.22,1464.7555300000001,04/25/18,14:37:48,10.49,0.452,0.22,-7.547999999999999,8.3,-72.8,-0.1,-3.4,-3192,86.8,9.68,12.4,0.0,0.0
99,218303834889610.47,-107.91048604098499,14:47:55.33,4/25/2018,11,2.081,258.33,9.305718042061251,0.78,215.0,222.97,3.95,5.72,21.2,0.0,2.74,2.74,93,64,513.5,16.1,-4.0,D,531.0,3,228.32,2.5,2.16,193,126.91,-107.90842397,37.23714371,0.0,0.0,1,N,1.223042,81,81,11.0,5,5,120.1964,0,9999.99,2.78,2.907,2,9,14.6,0,14.6000003814697,0.22,1464.75566,04/25/18,14:37:49,10.45,0.45399999999999996,0.22,-7.553999999999999,8.28,-72.0,-0.6,-6.4,-1635,86.9,9.69,12.5,0.0,0.0
100,217766027339649.78,-107.91049444617902,14:47:56.33,4/25/2018,12,2.103,244.09,9.305718042061251,0.78,201.6,208.86,4.14,5.88,21.2,0.0,2.74,2.74,93,64,513.5,16.1,-4.0,D,531.0,3,228.55700000000002,2.5,2.14,193,126.68,-107.90842397,37.23714371,0.0,0.0,1,N,2.149623,82,82,11.0,5,5,115.5563,0,9999.99,2.78,2.907,2,9,14.6,0,14.6000003814697,0.22,1464.75567,04/25/18,14:37:50,10.48,0.45299999999999996,0.22,-7.555,8.28,-72.0,-0.4,-2.9,-4144,86.9,9.68,12.5,0.0,0.0
101,216949636880059.4,-107.91050128702,14:47:57.34,4/25/2018,12,2.066,231.78,9.305718042061251,0.75,185.6,192.16,4.3,5.19,21.2,0.0,2.82,2.82,93,64,513.5,16.1,-4.0,D,531.0,3,228.503,2.5,2.12,194,126.41,-107.90842397,37.23714371,0.0,0.0,1,N,3.236644,83,83,11.0,5,5,109.8627,0,9999.99,2.86,2.987,2,9,14.5,0,14.5,0.22,1464.40102,04/25/18,14:37:51,10.46,0.45299999999999996,0.22,-7.547000000000001,8.29,-72.2,-0.4,-2.5,-2442,86.9,9.69,12.4,0.0,0.0
102,216103530579658.8,-107.91050477030198,14:47:58.34,4/25/2018,12,2.055,217.6,9.305718042061251,0.75,171.7,177.9,4.09,6.45,21.2,0.0,2.82,2.82,93,69,513.4,16.1,-4.3,D,491.7,3,228.195,2.5,2.1,194,126.17,-107.90842397,37.23714371,0.0,0.0,1,N,4.192626000000001,82,82,11.0,5,5,104.0247,0,9999.99,2.86,2.987,2,9,14.5,0,14.5,0.22,1464.40101,04/25/18,14:37:52,10.41,0.45299999999999996,0.22,-7.566,8.31,-73.6,-0.2,-3.6,-1234,86.9,9.71,12.4,0.0,0.0
103,215258746109014.97,-107.91050521263399,14:47:59.38,4/25/2018,12,2.062,205.05,9.305718042061251,0.75,154.3,160.49,4.57,5.97,21.2,0.0,2.99,2.99,93,70,513.4,16.1,-4.3,D,487.5,3,227.673,2.5,2.11,195,125.98,-107.90842397,37.23714371,0.0,0.0,1,N,5.000938,84,84,11.0,5,5,97.52651999999999,0,9999.99,3.03,3.157,2,9,14.5,0,14.5,0.22,1464.40101,04/25/18,14:37:53,10.38,0.45299999999999996,0.22,-7.5729999999999995,8.29,-72.5,-0.9,-2.4,-3447,87.0,9.72,12.3,0.0,0.0
104,214357716039614.84,-107.91050213034599,14:48:00.38,4/25/2018,12,2.063,193.54,9.305718042061251,0.75,139.4,146.02,4.56,6.36,21.2,0.0,3.03,3.03,93,70,513.4,16.1,-4.3,D,487.5,3,226.865,2.5,2.1,195,125.81,-107.90842397,37.23714371,0.0,0.0,1,N,5.662364,84,84,11.0,5,5,91.96178,0,9999.99,3.07,3.197,2,9,14.5,0,14.5,0.22,1464.40106,04/25/18,14:37:54,10.4,0.456,0.22,-7.5520000000000005,8.28,-71.8,-0.9,0.5,-2114,87.0,9.72,12.3,0.0,0.0
105,213525977608952.66,-107.910497217652,14:48:01.38,4/25/2018,12,2.209,175.69,9.305718042061251,0.75,124.9,132.27,4.56,7.4,21.2,0.0,3.03,3.03,93,70,513.4,16.1,-4.3,D,487.5,3,225.972,2.5,2.1,195,125.69,-107.90842397,37.23714371,0.0,0.0,1,N,6.167286,84,84,11.0,5,5,89.61758,0,9999.99,3.07,3.197,2,9,14.5,0,14.5,0.22,1464.40106,04/25/18,14:37:55,10.51,0.45399999999999996,0.22,-7.557,8.29,-72.2,0.0,-3.3,-1831,87.0,9.69,12.3,0.0,0.0
106,212790853789357.47,-107.91048910429001,14:48:02.38,4/25/2018,12,2.238,161.8,9.305718042061251,0.75,110.2,118.58,4.06,5.86,21.1,0.0,3.06,3.06,93,70,513.4,16.1,-4.3,D,487.5,3,224.912,2.5,2.14,196,125.62,-107.90842397,37.23714371,0.0,0.0,1,N,6.4141129999999995,81,81,11.0,7,7,88.52351,0,9999.99,3.1,3.227,2,9,14.5,0,14.5,0.22,1464.4011699999999,04/25/18,14:37:56,10.53,0.45299999999999996,0.22,-7.558,8.29,-72.2,0.1,-2.7,-4185,87.1,9.69,12.4,0.0,0.0
107,212218853149437.34,-107.91047803216401,14:48:03.39,4/25/2018,12,2.269,144.62,9.305718042061251,0.75,94.0,103.59,4.45,9.2,21.2,0.0,3.08,3.08,93,73,513.3,16.0,-4.5,D,469.5,3,223.74400000000003,2.5,2.16,196,125.64,-107.90842397,37.23714371,0.0,0.0,1,N,6.351541,84,84,11.0,60,60,88.80466,0,9999.99,3.12,3.247,2,9,14.5,0,14.5,0.22,1464.401,04/25/18,14:37:58,10.41,0.452,0.22,-7.57,8.29,-72.3,-0.5,-2.9,-2106,87.1,9.72,12.4,0.0,0.0
108,211971171939495.66,-107.910465075117,14:48:04.39,4/25/2018,12,2.309,126.87,9.305718042061251,0.75,85.4,95.61,4.1,13.4,21.2,0.0,3.02,3.02,93,73,513.3,16.0,-4.5,D,469.5,3,222.65200000000002,2.5,2.19,196,125.75,-107.90842397,37.23714371,0.0,0.0,1,N,5.904473,82,82,11.0,105,105,90.82056,0,9999.99,3.06,3.183402,2,9,14.5,0,14.5,0.22,1464.401,04/25/18,14:37:58,10.41,0.452,0.22,-7.57,8.29,-72.3,-0.5,-2.9,-2106,87.1,9.72,12.4,0.0,0.0
109,211841895809072.88,-107.910450249454,14:48:05.39,4/25/2018,12,2.467,109.06,9.305718042061251,0.75,82.9,93.28,2.68,11.9,21.2,0.0,3.05,3.05,93,73,513.3,16.0,-4.5,D,469.5,3,221.50400000000002,2.5,2.25,197,125.92,-107.90842397,37.23714371,0.0,0.0,1,N,5.230119,73,73,11.0,130,130,94.07455,0,9999.99,3.07,3.196158,2,9,14.5,0,14.5,0.22,1464.40112,04/25/18,14:37:59,10.34,0.452,0.22,-7.556,8.29,-72.1,-0.6,-1.7,-3395,87.0,9.73,12.3,0.0,0.0
110,211794731699654.9,-107.910433956544,14:48:06.39,4/25/2018,12,2.6069999999999998,101.85,9.305718042061251,0.75,84.1,94.4,3.27,11.1,21.2,0.0,3.05,3.05,93,73,513.3,16.0,-4.5,D,464.6,3,220.30700000000002,2.5,2.41,197,126.13,-107.90842397,37.23714371,0.0,0.0,1,N,4.391,77,77,11.0,143,143,98.4889,0,9999.99,3.07,3.196158,2,9,14.5,0,14.5,0.22,1464.4008800000001,04/25/18,14:38:01,10.29,0.45399999999999996,0.22,-7.515,8.28,-71.9,-1.4,-2.6,-2459,87.1,9.75,12.5,0.0,0.0
111,211745321699652.3,-107.910416284825,14:48:07.48,4/25/2018,12,2.7060000000000004,95.35,9.305718042061251,0.75,85.2,95.42,5.17,11.1,21.2,0.0,3.01,3.01,93,73,513.3,16.0,-4.5,D,464.6,3,219.012,2.5,2.69,197,126.36,-107.90842397,37.23714371,0.0,0.0,1,N,3.505637,88,88,11.0,160,160,103.5877,0,9999.99,3.06,3.1859509999999998,2,9,14.4,0,14.3999996185303,0.22,1464.04546,04/25/18,14:38:02,10.33,0.45399999999999996,0.22,-7.5360000000000005,8.3,-73.0,-1.1,-2.5,-3016,87.0,9.73,12.5,0.0,0.0
112,211605647379542.47,-107.910398676001,14:48:08.50,4/25/2018,12,2.7569999999999997,93.98,9.305718042061251,0.75,94.0,103.59,4.31,12.1,21.2,0.0,3.02,3.02,93,73,513.3,16.0,-4.5,D,466.0,3,217.666,2.5,2.74,197,126.57,-107.90842397,37.23714371,0.0,0.0,1,N,2.669035,85,85,11.0,154,154,108.801,0,9999.99,3.06,3.186872,2,9,14.4,0,14.3999996185303,0.22,1464.04584,04/25/18,14:38:03,10.36,0.45399999999999996,0.22,-7.559,8.29,-72.2,-0.7,1.2,-3566,86.9,9.71,12.4,0.0,0.0
113,211394688689381.38,-107.91038303814301,14:48:09.50,4/25/2018,12,2.7539999999999996,95.15,9.305718042061251,0.75,98.2,107.48,4.74,12.0,21.2,0.01,3.05,3.06,93,73,513.3,16.0,-4.5,D,466.0,3,216.416,2.5,2.78,197,126.74,-107.90842397,37.23714371,0.0,0.0,1,N,1.9959650000000002,85,85,11.0,150,150,113.2415,0,9999.99,3.09,3.2193959999999997,2,9,14.4,0,14.3999996185303,0.22,1464.04584,04/25/18,14:38:03,10.36,0.45399999999999996,0.22,-7.559,8.29,-72.2,-0.7,1.2,-3566,86.9,9.71,12.4,0.0,0.0
114,210941296299438.38,-107.910365817693,14:48:10.50,4/25/2018,12,2.966,100.82,9.305718042061251,0.75,102.9,111.82,5.01,10.7,21.2,0.0,3.07,3.07,93,73,513.3,16.0,-4.5,D,466.0,3,214.893,2.5,2.8,196,126.87,-107.90842397,37.23714371,0.0,0.0,1,N,1.4632180000000001,87,87,11.0,147,147,116.8851,0,9999.99,3.11,3.235588,2,9,14.4,0,14.3999996185303,0.22,1464.04598,04/25/18,14:38:04,10.38,0.45299999999999996,0.22,-7.563,8.28,-72.0,-0.2,0.5,-4263,86.9,9.71,12.3,0.0,0.0
115,210454259879355.72,-107.91035149999999,14:48:11.52,4/25/2018,12,2.6069999999999998,109.15,9.305718042061251,0.75,107.9,116.45,4.77,10.9,21.2,0.0,3.12,3.12,93,73,513.3,16.0,-4.5,D,466.0,3,213.533,2.5,2.8,196,126.96,-107.90842397,37.23714371,0.0,0.0,1,N,1.110354,84,84,11.0,138,138,119.3479,0,9999.99,3.16,3.2836220000000003,2,9,14.4,0,14.3999996185303,0.22,1464.04567,04/25/18,14:38:06,10.4,0.457,0.22,-7.56,8.28,-72.0,-0.3,-2.9,-3565,86.9,9.7,12.4,0.0,0.0
116,209896541390008.9,-107.91033688749701,14:48:12.52,4/25/2018,12,2.6069999999999998,109.15,9.305718042061251,0.75,111.3,119.6,4.94,10.1,21.2,0.0,3.16,3.16,93,70,513.2,16.0,-4.3,D,487.3,3,212.148,2.5,2.78,196,127.04,-107.90842397,37.23714371,0.0,0.0,1,N,0.8202961999999999,87,87,11.0,134,134,121.3952,0,9999.99,3.2,3.331332,2,9,14.4,0,14.3999996185303,0.22,1464.04567,04/25/18,14:38:06,10.4,0.457,0.22,-7.56,8.28,-72.0,-0.3,-2.9,-3565,86.9,9.7,12.4,0.0,0.0
117,209262447249614.06,-107.91032241236,14:48:13.53,4/25/2018,11,2.728,111.93,9.305718042061251,0.78,114.5,122.57,4.79,9.7,21.2,0.0,3.24,3.24,93,70,513.2,16.0,-4.3,D,487.3,3,210.701,2.5,2.8,196,127.09,-107.90842397,37.23714371,0.0,0.0,1,N,0.5942763000000001,86,86,11.0,129,129,123.0011,0,9999.99,3.28,3.407,2,9,14.3,0,14.3999996185303,0.22,1464.04574,04/25/18,14:38:07,10.43,0.45399999999999996,0.22,-7.534,8.3,-73.1,-1.1,-8.7,-2554,86.8,9.69,12.5,0.0,0.0
118,208286860759443.47,-107.910307775102,14:48:14.53,4/25/2018,12,2.978,125.87,9.305718042061251,0.75,116.9,124.8,4.73,10.7,21.2,0.0,3.18,3.18,93,70,513.2,16.0,-4.3,D,487.3,3,209.013,2.5,2.79,195,127.07,-107.90842397,37.23714371,0.0,0.0,1,N,0.4562052,89,89,11.0,122,122,122.4349,0,9999.99,3.23,3.3551879999999996,2,9,14.3,0,14.3000001907349,0.22,1463.68916,04/25/18,14:38:09,10.47,0.455,0.22,-7.5520000000000005,8.28,-71.8,-0.1,2.5,-2056,86.8,9.68,12.3,0.0,0.0
119,207654259879319.62,-107.91029616666701,14:48:15.53,4/25/2018,12,2.728,125.01,9.305718042061251,0.75,117.5,125.36,4.78,9.4,21.2,0.0,3.24,3.25,93,68,513.2,16.0,-4.2,D,500.2,3,207.582,2.5,2.81,195,127.1,-107.90842397,37.23714371,0.0,0.0,1,N,0.5583325,86,86,11.0,119,119,123.2567,0,9999.99,3.29,3.417,2,9,14.3,0,14.3000001907349,0.22,1463.68916,04/25/18,14:38:09,10.47,0.455,0.22,-7.5520000000000005,8.28,-71.8,-0.1,2.5,-2056,86.8,9.68,12.3,0.0,0.0
120,206920926549969.4,-107.910282833333,14:48:16.55,4/25/2018,12,2.7039999999999997,125.41,9.305718042061251,0.75,118.3,126.1,4.64,9.8,21.2,0.0,3.18,3.18,93,68,513.2,16.0,-4.2,D,500.2,3,206.378,2.5,2.79,195,127.12,-107.90842397,37.23714371,0.0,0.0,1,N,0.49092790000000003,85,85,11.0,118,118,123.7373,0,9999.99,3.23,3.3569999999999998,2,9,14.3,0,14.3000001907349,0.22,1463.68903,04/25/18,14:38:10,10.5,0.45399999999999996,0.22,-7.5520000000000005,8.28,-72.1,-0.8,-3.8,-4627,86.9,9.68,12.5,0.0,0.0
121,206187593209250.5,-107.91026983333299,14:48:17.55,4/25/2018,12,2.7880000000000003,127.57,9.305718042061251,0.75,118.6,126.38,4.62,9.1,21.1,0.0,3.01,3.01,93,68,513.2,16.0,-4.2,D,500.2,3,204.90400000000002,2.5,2.8,194,127.14,-107.90842397,37.23714371,0.0,0.0,1,N,0.4278153,85,85,11.0,118,118,124.1876,0,9999.99,3.05,3.177,2,9,14.3,0,14.3000001907349,0.22,1463.68915,04/25/18,14:38:12,10.57,0.455,0.22,-7.551,8.3,-73.2,-1.0,-3.8,-2815,86.9,9.67,12.4,0.0,0.0
122,205454259879189.75,-107.910256833333,14:48:18.55,4/25/2018,12,2.6839999999999997,127.75,9.305718042061251,0.75,118.3,126.1,4.95,9.4,21.1,0.0,3.01,3.01,93,68,513.2,16.0,-4.2,D,500.2,3,203.535,2.5,2.83,194,127.15,-107.90842397,37.23714371,0.0,0.0,1,N,0.3803605,91,91,11.0,124,124,124.5264,0,9999.99,3.05,3.177,0,0,14.3,0,14.3000001907349,0.22,1463.68915,04/25/18,14:38:12,10.57,0.455,0.22,-7.551,8.3,-73.2,-1.0,-3.8,-2815,86.9,9.67,12.4,0.0,0.0
123,204720926549839.53,-107.910243666667,14:48:19.55,4/25/2018,12,2.668,126.92,9.305718042061251,0.75,117.1,124.99,5.65,9.1,21.2,0.0,3.18,3.18,93,65,513.1,16.1,-4.0,D,522.3,3,202.06099999999998,2.5,2.95,194,127.17,-107.90842397,37.23714371,0.0,0.0,1,N,0.31506059999999997,90,90,11.0,125,125,124.993,0,9999.99,3.23,3.3569999999999998,2,9,14.3,0,14.3000001907349,0.22,1463.68902,04/25/18,14:38:13,10.57,0.45299999999999996,0.22,-7.564,8.28,-71.7,-1.0,-4.2,-637,87.0,9.68,12.4,0.0,0.0
124,204020926549475.25,-107.910230666667,14:48:20.56,4/25/2018,12,2.647,126.58,9.305718042061251,0.75,117.6,125.45,5.68,9.8,21.2,0.0,3.18,3.18,93,65,513.1,16.1,-4.0,D,522.3,3,200.55,2.5,2.81,193,127.2,-107.90842397,37.23714371,0.0,0.0,1,N,0.19348929999999998,91,91,11.0,129,129,125.8625,0,9999.99,3.23,3.3569999999999998,2,9,14.3,0,14.3000001907349,0.22,1463.68906,04/25/18,14:38:15,10.45,0.452,0.22,-7.547000000000001,8.29,-72.1,-0.7,-4.7,-3202,87.1,9.72,12.4,0.0,0.0
125,203320926549821.47,-107.910217833333,14:48:21.58,4/25/2018,12,2.742,127.17,9.305718042061251,0.75,119.9,127.59,4.82,8.5,21.2,0.0,3.22,3.22,93,65,513.1,16.1,-4.0,D,522.3,3,199.265,2.5,2.5,193,127.2,-107.90842397,37.23714371,0.0,0.0,1,N,0.1798517,86,86,11.0,120,120,125.9601,0,9999.99,3.26,3.387,0,0,14.3,0,14.3000001907349,0.22,1463.68906,04/25/18,14:38:15,10.45,0.452,0.22,-7.547000000000001,8.29,-72.1,-0.7,-4.7,-3202,87.1,9.72,12.4,0.0,0.0
126,202620926549457.2,-107.910205166667,14:48:22.58,4/25/2018,12,2.6839999999999997,128.19,9.305718042061251,0.75,118.6,126.38,5.42,9.6,21.2,0.0,3.22,3.22,93,63,513.1,16.1,-3.9,D,537.5,3,198.03,2.5,2.84,193,127.18,-107.90842397,37.23714371,0.0,0.0,1,N,0.2358468,85,85,11.0,119,119,125.5592,0,9999.99,3.26,3.387,2,9,14.3,0,14.3000001907349,0.22,1463.68909,04/25/18,14:38:16,10.39,0.45299999999999996,0.22,-7.563,8.32,-74.2,-0.6,-7.1,-1828,87.1,9.74,12.4,0.0,0.0
127,201870926549929.66,-107.910192833333,14:48:23.58,4/25/2018,12,2.612,128.07,9.305718042061251,0.75,118.1,125.92,5.5,9.2,21.1,0.0,3.17,3.17,93,63,513.1,16.1,-3.9,D,537.5,3,196.53099999999998,2.5,2.66,192,127.19,-107.90842397,37.23714371,0.0,0.0,1,N,0.2028326,90,90,11.0,127,127,125.7953,0,9999.99,3.22,3.347,2,9,14.2,0,14.1999998092651,0.22,1463.33186,04/25/18,14:38:18,10.3,0.45399999999999996,0.22,-7.553,8.28,-71.9,-0.8,-3.9,-1604,87.1,9.76,12.3,0.0,0.0
