Latitude;Longitude;Time;Date;Number of Sats;GPS Speed (Kn);GPS True Heading;GPS Magnetic Variation;HDOP;C Magnetic Heading;C True Heading;Pitch Angle;Roll Angle;C Inside Temp (c);DFS Depth (m);DTB Height (m);Total Water Column (m);Batt Percent;Power Watts;Watt-Hours;Batt Volts;Batt Ampers;Batt State;Time to Empty;Current Step;Dist To Next (m);Next Speed (kn);Vehicle Speed (kn);Motor Speed CMD;Next Heading;Next Long;Next Lat;Next Depth (m);Depth Goal (m);Vehicle State;Error State;Distance to Track (m);Fin Pitch R;Fin Pitch L;Pitch Goal;Fin Yaw T;Fin Yaw B;Yaw Goal;Fin Roll;DVL-Depth (m);DVL -Altitude (m);DVL -Water Column (m);DVL-FixType;DVL-FixQuality;DVL-Temperature;Conductivity (mmhos/cm);Temperature (c);Salinity (ppt);Sound Speed (m/s);Date m/d/y   ;Time hh:mm:ss;Temp C;SpCond mS/cm;Sal ppt;Depth feet;pH;pH mV;Turbid+ NTU;Chl ug/L;BGA-PC cells/mL;ODOsat %;ODO mg/L;Battery volts;ROSEM Command Type;
37.2386323333333;-107.909395;14:46:15.88;4/25/2018;10;0.095;271.43;9.30571804206125;1.1;179.1;185.46;3.45;-4.34;20.7;.01;.48;.49;94;21;514.4;16.2;-1.3;D;1602.3;0;12.781;2.5;0;128;179.65;-107.90939411;37.23851739;0;0;1;N;9.9371;78;78;11;103;103;179.4763;0;9999.99;.51;0.637;2;9;17.8;0;17.7999992370605;0.21;1475.62188;04/25/18;14:36:10;12.18;0.435;0.21;-7.515;8.42;-80.0;-0.2;-5.5;-2102;88.2;9.45;12.4;;
37.2386316666667;-107.909395333333;14:46:16.92;4/25/2018;10;0.072;271.43;9.30571804206125;1.1;178.1;184.43;3.45;-4.78;20.6;.00;.48;.48;94;21;514.4;16.2;-1.3;D;1602.3;0;12.708;2.5;0;128;179.51;-107.90939411;37.23851739;0;0;1;N;9.86077;78;78;11;110;110;179.4431;0;9999.99;.51;0.637;0;0;17.8;0;17.7999992370605;0.21;1475.62138;04/25/18;14:36:11;12.23;0.435;0.21;-7.509;8.42;-80.1;-1.2;-0.3;-3962;88.2;9.44;12.6;;
37.2386313776093;-107.909395642752;14:46:17.92;4/25/2018;10;0.094;271.43;9.30571804206125;1.1;175.3;181.57;5.76;-0.34;20.7;.02;.48;.50;94;25;514.4;16.2;-1.5;D;1346.4;0;12.676;2.5;0.3;184;179.39;-107.90939411;37.23851739;0;0;1;N;9.86077;88;88;11;113;113;179.4288;0;9999.99;.51;0.637;0;0;17.7;0;17.7000007629395;0.21;1475.29541;04/25/18;14:36:12;12.25;0.434;0.21;-7.516;8.42;-79.9;-0.4;-2.4;905;88.3;9.45;12.3;;
37.2386292755434;-107.909395717799;14:46:18.94;4/25/2018;10;0.663;271.43;9.30571804206125;1.1;177.1;183.41;4.04;3.06;20.7;.03;.47;.50;94;25;514.4;16.2;-1.5;D;1346.4;0;12.442;2.5;0.34;184;179.34;-107.90939411;37.23851739;0;0;1;N;9.86077;86;86;11;110;110;179.375;0;9999.99;.52;0.647;2;9;17.7;0;17.7000007629395;0.21;1475.29541;04/25/18;14:36:12;12.25;0.434;0.21;-7.516;8.42;-79.9;-0.4;-2.4;905;88.3;9.45;12.3;;
37.2386230582226;-107.909396199461;14:46:19.95;4/25/2018;10;1.381;211.44;9.30571804206125;1.1;175.9;182.18;1.8;2.65;20.7;.01;.52;.53;94;25;514.4;16.2;-1.5;D;1346.4;0;11.751;2.5;0.71;184;179.1;-107.90939411;37.23851739;0;0;1;N;9.86077;68;68;11;115;115;179.1232;0;9999.99;.54;0.667;2;9;17.7;0;17.7000007629395;0.21;1475.2986;04/25/18;14:36:13;12.27;0.433;0.21;-7.512;8.42;-80.2;-0.3;-6.5;-2979;88.3;9.45;12.5;;
37.2386156757321;-107.909396939464;14:46:20.95;4/25/2018;10;1.824;194.29;9.30571804206125;1.1;177.1;183.41;1.37;1.65;20.7;.00;.57;.57;94;25;514.4;16.2;-1.5;D;1346.4;0;10.932;2.5;1.11;184;178.69;-107.90939411;37.23851739;0;0;1;N;9.86077;65;65;11;106;106;178.7153;0;9999.99;.58;0.707;2;9;17.7;0;17.7000007629395;0.22;1475.30674;04/25/18;14:36:15;12.15;0.447;0.22;-7.422;8.40;-78.9;0.0;-4.2;-2343;87.9;9.43;12.4;;
37.2386048713556;-107.90939760689;14:46:21.95;4/25/2018;10;2.005;189.71;9.30571804206125;1.1;175.5;181.77;2.95;4.63;20.7;.00;.64;.64;94;53;514.4;16.1;-3.3;D;645.8;0;9.732;2.5;1.42;184;178.18;-107.90939411;37.23851739;0;0;1;N;9.86077;73;73;11;113;113;178.2116;0;9999.99;.66;0.787;2;9;17.6;0;17.6000003814697;0.22;1474.97894;04/25/18;14:36:16;11.66;0.445;0.22;-7.416;8.40;-78.7;-0.5;3.3;-455;87.9;9.53;12.4;;
37.2385947689596;-107.90939873974;14:46:22.95;4/25/2018;10;2.168;188.04;9.30571804206125;1.1;175.9;182.18;2.68;3.97;20.7;.00;.73;.73;94;53;514.4;16.1;-3.3;D;645.8;0;8.614;2.5;1.64;184;177.27;-107.90939411;37.23851739;0;0;1;N;9.86077;73;73;11;108;108;177.332;0;9999.99;.75;0.877;2;9;17.6;0;17.6000003814697;0.22;1474.97894;04/25/18;14:36:16;11.66;0.445;0.22;-7.416;8.40;-78.7;-0.5;3.3;-455;87.9;9.53;12.4;;
37.2385843041377;-107.909399138904;14:46:23.95;4/25/2018;10;2.186;187.15;9.30571804206125;1.1;175;181.26;3.48;5.14;20.7;.01;.80;.81;94;53;514.4;16.1;-3.3;D;645.8;0;7.454;2.5;1.91;184;176.58;-107.90939411;37.23851739;0;0;1;N;9.86077;78;78;11;109;109;176.6588;0;9999.99;.83;0.957;2;9;17.5;0;17.6000003814697;0.22;1474.97924;04/25/18;14:36:17;11.27;0.452;0.22;-7.471;8.39;-78.3;-1.3;0.7;-3021;88.0;9.63;12.4;;
37.2385733008225;-107.909399614799;14:46:24.97;4/25/2018;10;2.194;185.09;9.30571804206125;1.1;173.9;180.14;3.39;6.04;20.7;.01;.89;.90;94;51;514.3;16.1;-3.1;D;671.6;0;6.236;2.5;2.03;184;175.52;-107.90939411;37.23851739;0;0;1;N;9.86077;77;77;11;109;109;175.608;0;9999.99;.92;1.047;2;9;17.4;0;17.3999996185303;0.22;1474.32274;04/25/18;14:36:19;11.12;0.452;0.22;-7.475;8.38;-77.5;-0.5;-2.4;-1572;87.6;9.62;12.4;;
37.2385629164008;-107.909400484582;14:46:25.98;4/25/2018;10;2.239;182.78;9.30571804206125;1.1;172.9;179.12;3.13;4.87;20.7;.01;.98;.98;94;51;514.3;16.1;-3.1;D;671.6;0;5.094;2.5;2.12;184;173.64;-107.90939411;37.23851739;0;0;1;N;9.86077;76;76;11;106;106;173.7719;0;9999.99;1.01;1.137;2;9;17.3;0;17.3999996185303;0.22;1474.32274;04/25/18;14:36:19;11.12;0.452;0.22;-7.475;8.38;-77.5;-0.5;-2.4;-1572;87.6;9.62;12.4;;
37.2385518616;-107.909399585825;14:46:26.98;4/25/2018;10;2.3;183.13;9.30571804206125;1.1;169.8;175.97;3.06;5.35;20.7;.00;1.07;1.07;94;51;514.3;16.1;-3.1;D;671.6;0;3.863;2.5;2.17;184;172.79;-107.90939411;37.23851739;0;0;1;N;9.86077;75;75;11;115;115;172.8519;0;9999.99;1.10;1.227;2;9;17.2;0;17.2999992370605;0.22;1473.99274;04/25/18;14:36:20;11.03;0.452;0.22;-7.438;8.38;-77.8;-0.5;-1.3;-1202;87.5;9.63;12.3;;
37.2385409801145;-107.909400161524;14:46:28.02;4/25/2018;10;2.262;182.58;9.30571804206125;1.1;170.1;176.28;3.15;5.4;20.8;.00;1.17;1.17;94;51;514.3;16.1;-3.1;D;671.6;0;2.677;2.5;2.2;184;168.46;-107.90939411;37.23851739;0;0;1;N;2.710333E-02;76;76;11;98;98;169.1227;0;9999.99;1.20;1.327;2;9;17.1;0;17.1000003814697;0.22;1473.33033;04/25/18;14:36:22;10.86;0.453;0.22;-7.463;8.37;-77.1;-0.6;-2.4;-3762;87.3;9.64;12.5;;
37.2385314395858;-107.909399591717;14:46:29.02;4/25/2018;10;2.263;180.43;9.30571804206125;1.1;167.6;173.75;3.66;5.87;20.7;.00;1.27;1.28;94;51;514.3;16.1;-3.1;D;671.8;0;1.636;2.5;2.21;184;162.74;-107.90939411;37.23851739;0;0;1;N;0.1811479;79;79;11;104;104;168.0194;0;9999.99;1.30;1.427;2;9;17;0;17.1000003814697;0.22;1473.33034;04/25/18;14:36:23;10.79;0.453;0.22;-7.452;8.37;-76.8;-0.5;-5.2;-3051;87.2;9.64;12.6;;
37.238521038883;-107.909398385309;14:46:30.02;4/25/2018;10;2.219;177.99;9.30571804206125;1.1;165.6;171.73;3.17;4.96;20.8;.00;1.35;1.35;94;51;514.3;16.1;-3.1;D;671.8;1;41.217;2.5;2.23;185;243.82;-107.90981623;37.23835752;0;0;1;N;0.650641;76;76;11;250;250;239.9105;0;9999.99;1.38;1.507;2;9;16.9;0;17;0.22;1472.99795;04/25/18;14:36:24;10.77;0.454;0.22;-7.477;8.39;-77.8;-1.1;-5.7;-4136;87.1;9.64;12.3;;
37.2385106462356;-107.909397675543;14:46:31.02;4/25/2018;11;2.185;176.72;9.30571804206125;0.81;176.5;182.79;2.18;11.4;20.8;.00;1.39;1.40;94;51;514.3;16.1;-3.1;D;671.8;1;40.778;2.5;2.23;185;245.32;-107.90981623;37.23835752;0;0;1;N;0.428915;71;71;11;250;250;247.6283;0;9999.99;1.42;1.547;2;9;16.8;0;17;0.22;1472.99795;04/25/18;14:36:24;10.77;0.454;0.22;-7.477;8.39;-77.8;-1.1;-5.7;-4136;87.1;9.64;12.3;;
37.2385004244923;-107.90939672721;14:46:32.03;4/25/2018;11;1.98;174.83;9.30571804206125;0.81;186;192.58;4.15;5.02;20.8;.00;1.41;1.41;94;54;514.3;16.1;-3.3;D;631.3;1;40.394;2.5;2.21;185;246.83;-107.90981623;37.23835752;0;0;1;N;1.487805;84;84;11;250;250;255.0943;0;9999.99;1.44;1.567;2;9;16.7;0;16.7999992370605;0.22;1472.33033;04/25/18;14:36:25;10.81;0.455;0.22;-7.473;8.37;-76.7;-0.9;-6.9;-4509;87.0;9.63;12.6;;
37.2384901353023;-107.909399830342;14:46:33.06;4/25/2018;12;2.191;180.89;9.30571804206125;0.81;199.7;206.87;5.44;5.77;20.8;.01;1.41;1.42;94;54;514.3;16.1;-3.3;D;631.3;1;39.702;2.5;2.08;185;248.2;-107.90981623;37.23835752;0;0;1;N;2.436614;90;90;11;250;250;261.4988;0;9999.99;1.45;1.577;2;9;16.7;0;16.7000007629395;0.22;1471.99587;04/25/18;14:36:26;10.90;0.455;0.22;-7.459;8.36;-76.6;-1.1;-6.0;-36;87.0;9.61;12.4;;
37.2384824816396;-107.909404115979;14:46:34.06;4/25/2018;12;1.906;188.59;9.30571804206125;0.84;215.3;223.29;5.27;9.6;20.7;.01;1.47;1.48;94;54;514.3;16.1;-3.3;D;631.3;1;39.039;2.5;2.02;186;249.15;-107.90981623;37.23835752;0;0;1;N;3.082879;89;89;11;250;250;265.6371;0;9999.99;1.51;1.637;2;9;16.6;0;16.6000003814697;0.22;1471.66097;04/25/18;14:36:28;11.04;0.454;0.22;-7.507;8.36;-76.4;0.2;-1.8;-1682;87.1;9.58;12.3;;
37.2384759766307;-107.909410212762;14:46:35.06;4/25/2018;11;1.884;200.44;9.30571804206125;0.84;226.6;235.19;4.83;7.88;20.8;.01;1.57;1.58;94;54;514.3;16.1;-3.3;D;631.3;1;38.280;2.5;1.96;187;249.87;-107.90981623;37.23835752;0;0;1;N;3.523349;87;87;11;250;250;268.3291;0;9999.99;1.62;1.747;2;9;16.5;0;16.6000003814697;0.22;1471.66097;04/25/18;14:36:28;11.04;0.454;0.22;-7.507;8.36;-76.4;0.2;-1.8;-1682;87.1;9.58;12.3;;
37.238470755672;-107.909418631519;14:46:36.08;4/25/2018;12;1.943;212.56;9.30571804206125;0.81;240.2;249.44;5.06;5.98;20.8;.01;1.70;1.70;94;56;514.3;16.1;-3.5;D;607.4;1;37.382;2.5;1.93;188;250.32;-107.90981623;37.23835752;0;0;1;N;3.762242;87;87;11;208;208;269.7473;0;9999.99;1.74;1.867;2;9;16.5;0;16.5;0.22;1471.3239;04/25/18;14:36:29;11.07;0.453;0.22;-7.493;8.36;-76.4;-1.4;-3.5;-1664;87.1;9.58;12.5;;
37.2384671793714;-107.909428270272;14:46:37.08;4/25/2018;12;1.861;225.9;9.30571804206125;0.81;252.9;262.63;5.78;6.81;20.8;.01;1.78;1.79;94;56;514.3;16.1;-3.5;D;607.4;1;36.445;2.5;1.91;189;250.45;-107.90981623;37.23835752;0;0;1;N;3.773178;90;90;11;163;163;269.8095;0;9999.99;1.83;1.957;2;9;16.4;0;16.3999996185303;0.22;1470.98583;04/25/18;14:36:31;10.98;0.453;0.22;-7.496;8.35;-75.7;-0.6;-4.9;-2234;87.2;9.61;12.6;;
37.2384651732946;-107.909439508397;14:46:38.08;4/25/2018;12;2.077;240.49;9.30571804206125;0.81;258.2;268.1;4.88;3.67;20.8;.01;1.78;1.79;94;56;514.3;16.1;-3.5;D;607.4;1;35.433;2.5;1.97;190;250.25;-107.90981623;37.23835752;0;0;1;N;3.561592;86;86;11;130;130;268.5582;0;9999.99;1.83;1.957;2;9;16.4;0;16.3999996185303;0.22;1470.98583;04/25/18;14:36:31;10.98;0.453;0.22;-7.496;8.35;-75.7;-0.6;-4.9;-2234;87.2;9.61;12.6;;
37.238463747456;-107.909455718153;14:46:39.08;4/25/2018;12;2.294;257.78;9.30571804206125;0.81;259.6;269.54;3.6;5.67;20.8;.00;1.85;1.85;94;61;514.3;16.1;-3.7;D;564.5;1;34.030;2.5;2.13;190;249.69;-107.90981623;37.23835752;0;0;1;N;3.100047;79;79;11;112;112;265.741;0;9999.99;1.89;2.017;2;9;16.4;0;16.3999996185303;0.22;1470.98598;04/25/18;14:36:32;10.91;0.452;0.22;-7.508;8.36;-76.2;-1.2;-1.4;-7113;87.2;9.63;12.4;;
37.2384631644618;-107.909471212662;14:46:40.08;4/25/2018;12;2.457;262.25;9.30571804206125;0.81;258.9;268.82;2.56;6.78;20.8;.00;1.86;1.86;94;61;514.3;16.1;-3.7;D;564.5;1;32.724;2.5;2.22;190;248.96;-107.90981623;37.23835752;0;0;1;N;2.570747;72;72;11;101;101;262.3732;0;9999.99;1.88;2.007;2;9;16.3;0;16.3999996185303;0.22;1470.9853;04/25/18;14:36:33;10.83;0.451;0.22;-7.487;8.35;-75.9;-0.2;-3.2;-2436;87.2;9.64;12.4;;
37.2384632584526;-107.909486313179;14:46:41.08;4/25/2018;12;2.366;266.82;9.30571804206125;0.81;257.5;267.38;3.05;6.06;20.8;.00;1.83;1.83;94;61;514.3;16.1;-3.7;D;564.5;1;31.484;2.5;2.31;190;248.07;-107.90981623;37.23835752;0;0;1;N;1.979748;76;76;11;88;88;258.4588;0;9999.99;1.85;1.977;2;9;16.3;0;16.2999992370605;0.22;1470.64656;04/25/18;14:36:34;10.75;0.450;0.22;-7.459;8.35;-76.0;-0.3;-6.9;-3842;87.1;9.65;12.5;;
37.2384633120108;-107.909499418679;14:46:42.08;4/25/2018;12;2.349;268.67;9.30571804206125;0.84;256.3;266.14;3.88;4.65;20.9;.00;1.81;1.81;94;61;514.3;16.1;-3.7;D;564.5;1;30.413;2.5;2.32;190;247.24;-107.90981623;37.23835752;0;0;1;N;1.480149;80;80;11;81;81;255.0413;0;9999.99;1.84;1.967;2;9;16.2;0;16.2999992370605;0.22;1470.64658;04/25/18;14:36:35;10.59;0.451;0.22;-7.455;8.34;-75.3;-1.0;-1.0;-827;87.1;9.68;12.5;;
37.2384624209512;-107.909513975051;14:46:43.08;4/25/2018;11;2.288;267.96;9.30571804206125;0.84;253.1;262.84;4.28;4.91;20.9;.00;1.79;1.80;94;47;514.2;16.1;2.9;C;-1;1;29.189;2.5;2.36;190;246.45;-107.90981623;37.23835752;0;0;1;N;1.011887;84;84;11;78;78;251.7677;0;9999.99;1.83;1.957;2;9;16.2;0;16.2000007629395;0.22;1470.30718;04/25/18;14:36:37;10.38;0.451;0.22;-7.491;8.36;-76.0;-1.9;-2.6;-3628;86.8;9.70;12.4;;
37.2384606218413;-107.90952892573;14:46:44.08;4/25/2018;11;2.363;265.42;9.30571804206125;0.81;248.3;257.87;3.74;5.21;21;.00;1.81;1.81;94;47;514.2;16.1;2.9;C;-1;1;27.898;2.5;2.35;190;245.74;-107.90981623;37.23835752;0;0;1;N;0.6046473;79;79;11;91;91;248.8813;0;9999.99;1.84;1.967;2;9;16.1;0;16.2000007629395;0.22;1470.30718;04/25/18;14:36:37;10.38;0.451;0.22;-7.491;8.36;-76.0;-1.9;-2.6;-3628;86.8;9.70;12.4;;
37.2384584572905;-107.9095416469;14:46:45.08;4/25/2018;12;2.319;262.67;9.30571804206125;0.84;243.9;253.3;3.52;6.98;20.9;.00;1.80;1.80;94;47;514.2;16.1;2.9;C;-1;1;26.774;2.5;2.33;190;245.22;-107.90981623;37.23835752;0;0;1;N;0.3301035;80;80;11;96;96;246.9219;0;9999.99;1.83;1.957;2;9;16.1;0;16.1000003814697;0.22;1469.96707;04/25/18;14:36:38;10.27;0.453;0.22;-7.492;8.34;-74.9;-0.6;-5.6;-3628;86.7;9.72;12.5;;
37.2384560050462;-107.909553991014;14:46:46.08;4/25/2018;11;2.305;258.52;9.30571804206125;0.84;241.4;250.69;3.2;6.64;20.9;.00;1.82;1.82;94;47;514.2;16.1;2.9;C;-1;1;25.668;2.5;2.3;191;244.75;-107.90981623;37.23835752;0;0;1;N;0.1015086;76;76;11;105;105;245.286;0;9999.99;1.85;1.977;2;9;16;0;16.1000003814697;0.22;1469.9669;04/25/18;14:36:40;10.11;0.452;0.22;-7.474;8.37;-76.5;-1.7;-4.5;-2960;86.5;9.72;12.4;;
37.2384529343358;-107.90956747692;14:46:47.08;4/25/2018;11;2.309;256.42;9.30571804206125;0.84;239.8;249.02;3.3;7.36;20.9;.00;1.84;1.84;93;61;514.2;16.1;-3.7;D;565.1;1;24.444;2.5;2.36;191;244.28;-107.90981623;37.23835752;0;0;1;N;0.1036277;77;77;11;106;106;243.8169;0;9999.99;1.87;1.997;2;9;16;0;16.1000003814697;0.22;1469.9669;04/25/18;14:36:40;10.11;0.452;0.22;-7.474;8.37;-76.5;-1.7;-4.5;-2960;86.5;9.72;12.4;;
37.2384490133725;-107.909582633077;14:46:48.08;4/25/2018;12;2.368;252.21;9.30571804206125;0.84;238.1;247.25;3.77;6.97;20.9;.00;1.86;1.86;93;61;514.2;16.1;-3.7;D;565.1;1;23.047;2.5;2.37;191;243.8;-107.90981623;37.23835752;0;0;1;N;0.2923172;80;80;11;108;108;242.4664;0;9999.99;1.89;2.017;2;9;15.9;0;16;0.22;1469.62573;04/25/18;14:36:41;10.08;0.456;0.22;-7.477;8.33;-74.6;0.4;-4.3;-1195;86.4;9.72;12.5;;
37.2384451392919;-107.909594373359;14:46:49.09;4/25/2018;12;2.346;251.19;9.30571804206125;0.84;236.5;245.57;3.98;9;20.9;.00;1.89;1.89;93;61;514.2;16.1;-3.7;D;565.1;1;21.924;2.5;2.34;191;243.62;-107.90981623;37.23835752;0;0;1;N;0.3543135;81;81;11;111;111;242.0231;0;9999.99;1.92;2.047;2;9;15.8;0;15.8999996185303;0.22;1469.28371;04/25/18;14:36:43;10.20;0.454;0.22;-7.492;8.32;-74.1;-1.2;-6.5;-1977;86.2;9.67;12.4;;
37.238440091597;-107.909607784099;14:46:50.11;4/25/2018;12;2.347;248.67;9.30571804206125;0.84;235.9;244.95;4.38;6.05;20.9;.00;1.89;1.89;93;61;514.2;16.1;-3.7;D;563.2;1;20.611;2.5;2.37;191;243.55;-107.90981623;37.23835752;0;0;1;N;0.3624384;83;83;11;115;115;241.965;0;9999.99;1.92;2.047;2;9;15.8;0;15.8999996185303;0.22;1469.28371;04/25/18;14:36:43;10.20;0.454;0.22;-7.492;8.32;-74.1;-1.2;-6.5;-1977;86.2;9.67;12.4;;
37.2384356728048;-107.909620338373;14:46:51.13;4/25/2018;11;2.31;248.74;9.30571804206125;0.84;234.5;243.48;3.88;7.78;20.9;.00;1.89;1.89;93;61;514.2;16.1;-3.7;D;563.2;1;19.397;2.5;2.42;191;243.38;-107.90981623;37.23835752;0;0;1;N;0.4018855;80;80;11;120;120;241.6831;0;9999.99;1.92;2.047;2;9;15.8;0;15.8000001907349;0.22;1468.941;04/25/18;14:36:45;10.27;0.453;0.22;-7.496;8.32;-74.0;-0.3;-5.5;-4537;86.1;9.64;12.3;;
37.2384318935487;-107.909631226894;14:46:52.13;4/25/2018;11;2.305;247.71;9.30571804206125;0.81;233.7;242.64;3.8;8;20.9;.00;1.89;1.89;93;61;514.2;16.1;-3.7;D;563.2;1;18.347;2.5;2.39;191;243.21;-107.90981623;37.23835752;0;0;1;N;0.438937;82;82;11;119;119;241.4185;0;9999.99;1.92;2.047;2;9;15.7;0;15.8000001907349;0.22;1468.94098;04/25/18;14:36:46;10.27;0.451;0.22;-7.486;8.32;-73.9;-0.9;-1.0;-3302;86.1;9.64;12.3;;
37.2384268800029;-107.909644530504;14:46:53.13;4/25/2018;11;2.363;246.43;9.30571804206125;0.81;233.6;242.54;4.13;8.5;20.9;.00;1.99;1.99;93;61;514.2;16.1;-3.7;D;563.2;1;17.045;2.5;2.41;191;243.1;-107.90981623;37.23835752;0;0;1;N;0.4428109;82;82;11;122;122;241.3908;0;9999.99;2.03;2.157;2;9;15.7;0;15.6999998092651;0.22;1468.5972;04/25/18;14:36:47;10.23;0.454;0.22;-7.488;8.35;-75.6;0.1;-6.6;-3811;86.1;9.65;12.5;;
37.2384219273753;-107.909657011624;14:46:54.13;4/25/2018;11;2.36;245.7;9.30571804206125;0.81;234.3;243.27;4.75;7.61;21;.00;1.99;1.99;93;61;514.1;16.1;-3.8;D;557.5;1;15.810;2.5;2.4;191;243.06;-107.90981623;37.23835752;0;0;1;N;0.4178218;85;85;11;120;120;241.5693;0;9999.99;2.03;2.157;2;9;15.6;0;15.6000003814697;0.22;1468.25258;04/25/18;14:36:48;10.22;0.454;0.22;-7.498;8.32;-74.1;-0.9;-2.4;-1641;86.1;9.66;12.5;;
37.2384175211351;-107.909668018975;14:46:55.14;4/25/2018;11;2.309;244.85;9.30571804206125;0.81;234.5;243.48;5.15;8.6;21;.00;1.98;1.98;93;61;514.1;16.1;-3.8;D;557.5;1;14.719;2.5;2.38;191;243.05;-107.90981623;37.23835752;0;0;1;N;0.3927913;85;85;11;122;122;241.748;0;9999.99;2.02;2.147;2;9;15.6;0;15.6000003814697;0.22;1468.25258;04/25/18;14:36:49;10.26;0.455;0.22;-7.491;8.31;-73.6;0.3;-2.8;-2207;86.1;9.65;12.3;;
37.2384128452743;-107.909680050765;14:46:56.14;4/25/2018;11;2.304;244.62;9.30571804206125;0.81;233.8;242.75;4.3;8.2;21;.00;2.18;2.18;93;61;514.1;16.1;-3.8;D;557.5;1;13.534;2.5;2.39;191;242.96;-107.90981623;37.23835752;0;0;1;N;0.3810314;84;84;11;123;123;241.8321;0;9999.99;2.22;2.347;2;9;15.6;0;15.6000003814697;0.22;1468.25256;04/25/18;14:36:50;10.34;0.456;0.22;-7.484;8.31;-73.6;-0.6;-1.4;-2798;86.1;9.63;12.4;;
37.2384073097126;-107.909693275329;14:46:57.17;4/25/2018;11;2.397;243.35;9.30571804206125;0.81;233.8;242.75;4.26;8.1;21;.00;2.18;2.18;93;62;514.1;16.1;-3.8;D;554.2;1;12.212;2.5;2.37;191;243.04;-107.90981623;37.23835752;0;0;1;N;0.3300049;83;83;11;125;125;242.1968;0;9999.99;2.22;2.347;2;9;15.5;0;15.6000003814697;0.22;1468.25251;04/25/18;14:36:51;10.39;0.452;0.22;-7.498;8.33;-74.7;-0.9;-3.4;-2845;86.1;9.62;12.4;;
37.2384021768269;-107.909705272498;14:46:58.17;4/25/2018;11;2.341;243.59;9.30571804206125;0.81;233.7;242.64;3.37;7.85;21;.00;2.26;2.26;93;62;514.1;16.1;-3.8;D;554.2;1;11.006;2.5;2.36;192;243.18;-107.90981623;37.23835752;0;0;1;N;0.2696348;77;77;11;127;127;242.6285;0;9999.99;2.30;2.427;2;9;15.5;0;15.5;0.22;1467.90666;04/25/18;14:36:52;10.34;0.454;0.22;-7.499;8.31;-73.6;0.4;-3.3;-4685;86.2;9.64;12.5;;
37.2383969850395;-107.909718058042;14:46:59.17;4/25/2018;11;2.347;244.36;9.30571804206125;0.81;234.3;243.27;3.75;7.83;21;.00;2.26;2.26;93;62;514.1;16.1;-3.8;D;554.2;1;9.736;2.5;2.38;192;243.21;-107.90981623;37.23835752;0;0;1;N;0.2345199;79;79;11;125;125;242.8799;0;9999.99;2.30;2.427;2;9;15.4;0;15.3999996185303;0.22;1467.56007;04/25/18;14:36:53;10.36;0.450;0.22;-7.487;8.31;-73.6;0.0;-5.8;-1266;86.1;9.63;12.5;;
37.2383920990111;-107.909729749974;14:47:00.17;4/25/2018;11;2.385;244;9.30571804206125;0.81;233.8;242.75;3.6;7.8;21;.00;2.28;2.28;93;62;514.1;16.1;-3.8;D;554.2;1;8.567;2.5;2.37;192;243.33;-107.90981623;37.23835752;0;0;1;N;0.1882886;80;80;11;126;126;243.2108;0;9999.99;2.31;2.437;2;9;15.4;0;15.3999996185303;0.22;1467.56007;04/25/18;14:36:54;10.32;0.456;0.22;-7.480;8.31;-73.3;-1.0;-6.1;-3390;86.2;9.64;12.6;;
37.2383871803794;-107.909742521988;14:47:01.17;4/25/2018;12;2.409;244.66;9.30571804206125;0.75;235.1;244.11;4.67;10.3;21;.00;2.28;2.28;93;63;514.1;16.1;-3.9;D;545.2;1;7.311;2.5;2.36;192;243.19;-107.90981623;37.23835752;0;0;1;N;0.1766679;85;85;11;124;124;243.294;0;9999.99;2.31;2.437;2;9;15.4;0;15.3999996185303;0.22;1467.56032;04/25/18;14:36:55;10.42;0.454;0.22;-7.490;8.33;-74.3;0.7;-2.0;-2376;86.1;9.61;12.5;;
37.2383819590058;-107.909755855498;14:47:02.17;4/25/2018;12;2.399;244.6;9.30571804206125;0.75;234.8;243.79;4.54;8.4;21;.00;2.35;2.36;93;63;514.1;16.1;-3.9;D;545.2;1;5.996;2.5;2.38;192;243.05;-107.90981623;37.23835752;0;0;1;N;0.1611997;81;81;11;128;128;243.4046;0;9999.99;2.39;2.517;2;9;15.4;0;15.3999996185303;0.22;1467.56031;04/25/18;14:36:56;10.38;0.454;0.22;-7.504;8.31;-73.3;-0.3;-3.3;-2874;86.2;9.64;12.4;;
37.2383768946916;-107.909768724723;14:47:03.17;4/25/2018;12;2.501;244.5;9.30571804206125;0.75;236;245.05;4.73;8.5;21;.00;2.35;2.36;93;63;514.1;16.1;-3.9;D;545.2;1;4.726;2.5;2.39;192;242.87;-107.90981623;37.23835752;0;0;1;N;0.1375799;85;85;11;121;121;243.5738;0;9999.99;2.39;2.517;2;9;15.3;0;15.3000001907349;0.22;1467.21287;04/25/18;14:36:57;10.38;0.454;0.22;-7.503;8.31;-73.4;-0.9;-0.4;-1002;86.3;9.64;12.4;;
37.2383724286938;-107.909781289617;14:47:04.17;4/25/2018;12;2.406;245.49;9.30571804206125;0.75;236.5;245.57;5.16;9.2;21;.00;2.35;2.36;93;62;514.0;16.1;-3.8;D;550.2;1;3.510;2.5;2.41;192;241.81;-107.90981623;37.23835752;0;0;1;N;0.1642385;88;88;11;118;118;243.383;0;9999.99;2.39;2.517;2;9;15.3;0;15.3000001907349;0.22;1467.21307;04/25/18;14:36:58;10.39;0.454;0.22;-7.507;8.30;-73.1;-0.1;-4.7;-2815;86.3;9.64;12.3;;
37.2383673014979;-107.909794543622;14:47:05.17;4/25/2018;12;2.46;244.97;9.30571804206125;0.75;235.3;244.32;4.53;8.5;21;.00;2.49;2.49;93;62;514.0;16.1;-3.8;D;550.2;2;59.631;2.5;2.43;192;271.49;-107.91046792;37.2383812;0;0;1;N;0.1562378;84;84;11;205;205;263.7902;0;9999.99;2.53;2.657;2;9;15.3;0;15.3000001907349;0.22;1467.213;04/25/18;14:36:59;10.42;0.452;0.22;-7.504;8.32;-74.2;-0.6;-3.1;-4017;86.3;9.64;12.5;;
37.2383628093189;-107.90980745361;14:47:06.17;4/25/2018;12;2.375;245.35;9.30571804206125;0.75;240.2;249.44;3.95;13.6;21;.00;2.49;2.49;93;62;514.0;16.1;-3.8;D;550.2;2;58.504;2.5;2.44;192;272;-107.91046792;37.2383812;0;0;1;N;0.6801912;81;81;11;210;210;268.5121;0;9999.99;2.53;2.657;2;9;15.3;0;15.3000001907349;0.22;1467.2128;04/25/18;14:37:00;10.36;0.453;0.22;-7.521;8.31;-73.2;-0.9;-4.7;-4125;86.4;9.65;12.4;;
37.2383592741598;-107.909820594565;14:47:07.19;4/25/2018;12;2.256;244.13;9.30571804206125;0.75;252.1;261.8;4.59;13.1;21;.00;2.58;2.58;93;62;514.0;16.1;-3.8;D;550.2;2;57.357;2.5;2.39;192;272.44;-107.91046792;37.2383812;0;0;1;N;0.2038886;85;85;11;164;164;271.1558;0;9999.99;2.61;2.737;2;9;15.2;0;15.1999998092651;0.22;1466.86443;04/25/18;14:37:01;10.31;0.453;0.22;-7.497;8.31;-73.3;-0.1;-2.7;-1354;86.4;9.67;12.5;;
37.2383571958338;-107.909833242042;14:47:08.19;4/25/2018;12;2.222;249.75;9.30571804206125;0.75;259.5;269.43;5.54;6.51;21;.00;2.58;2.58;93;66;514.0;16.1;-4;D;522.1;2;56.249;2.5;2.32;192;272.72;-107.91046792;37.2383812;0;0;1;N;9.854572E-02;90;90;11;143;143;273.3194;0;9999.99;2.61;2.737;2;9;15.2;0;15.1999998092651;0.22;1466.86477;04/25/18;14:37:02;10.28;0.453;0.22;-7.503;8.30;-73.0;-0.3;-4.2;826;86.4;9.68;12.4;;
37.2383561481042;-107.909845993078;14:47:09.19;4/25/2018;12;2.369;258.26;9.30571804206125;0.75;262.1;272.11;4.28;8.3;21;.00;2.65;2.66;93;66;514.0;16.1;-4;D;522.1;2;55.127;2.5;2.33;192;272.9;-107.91046792;37.2383812;0;0;1;N;0.2734965;83;83;11;137;137;274.5716;0;9999.99;2.70;2.827;2;9;15.2;0;15.1999998092651;0.22;1466.86485;04/25/18;14:37:03;10.24;0.452;0.22;-7.523;8.33;-74.4;-1.0;-5.9;-2988;86.4;9.68;12.5;;
37.2383561989196;-107.909859195931;14:47:10.20;4/25/2018;12;2.37;264.57;9.30571804206125;0.75;263.3;273.34;3.46;8.2;21;.00;2.65;2.65;93;66;514.0;16.1;-4;D;522.1;2;53.959;2.5;2.34;192;272.95;-107.91046792;37.2383812;0;0;1;N;0.3238695;78;78;11;135;135;274.9319;0;9999.99;2.70;2.827;2;9;15.2;0;15.1999998092651;0.22;1466.8647;04/25/18;14:37:04;10.21;0.455;0.22;-7.495;8.31;-73.2;-0.5;-1.8;572;86.4;9.69;12.4;;
37.2383566841722;-107.909872794634;14:47:11.20;4/25/2018;12;2.391;268.44;9.30571804206125;0.75;264.3;274.36;3.73;9.3;21;.00;2.69;2.69;93;63;514.0;16.1;-3.9;D;545.1;2;52.754;2.5;2.39;192;272.96;-107.91046792;37.2383812;0;0;1;N;0.3261163;78;78;11;131;131;274.9478;0;9999.99;2.72;2.847;2;9;15.1;0;15.1000003814697;0.22;1466.5151;04/25/18;14:37:05;10.22;0.454;0.22;-7.499;8.31;-73.1;-0.4;0.0;-4919;86.3;9.68;12.5;;
37.2383575294312;-107.909886904571;14:47:12.20;4/25/2018;12;2.43;271.03;9.30571804206125;0.75;265;275.08;3.7;7.7;21;.00;2.69;2.69;93;63;514.0;16.1;-3.9;D;545.1;2;51.502;2.5;2.41;192;272.93;-107.91046792;37.2383812;0;0;1;N;0.2919637;79;79;11;126;126;274.7038;0;9999.99;2.72;2.847;2;9;15.1;0;15.1000003814697;0.22;1466.5151;04/25/18;14:37:06;10.20;0.453;0.22;-7.499;8.30;-72.8;-0.2;-6.8;-5738;86.3;9.69;12.4;;
37.2383585565182;-107.909900879323;14:47:13.20;4/25/2018;12;2.405;273.2;9.30571804206125;0.75;266.5;276.61;4.52;9.1;21;.00;2.69;2.69;93;63;514.0;16.1;-3.9;D;545.1;2;50.261;2.5;2.4;192;272.87;-107.91046792;37.2383812;0;0;1;N;0.2397369;86;86;11;115;115;274.3303;0;9999.99;2.72;2.847;2;9;15.1;0;15.1000003814697;0.22;1466.51511;04/25/18;14:37:07;10.30;0.458;0.22;-7.498;8.33;-74.6;-0.2;-3.6;-3071;86.4;9.67;12.4;;
37.2383592732123;-107.909915407144;14:47:14.20;4/25/2018;11;2.384;273.51;9.30571804206125;0.79;265.5;275.59;4.09;9.7;21;.00;2.69;2.70;93;63;514.0;16.1;-3.9;D;545.1;2;48.972;2.5;2.4;192;272.85;-107.91046792;37.2383812;0;0;1;N;0.2174554;83;83;11;120;120;274.1707;0;9999.99;2.73;2.857;2;9;15.1;0;15.1000003814697;0.22;1466.51525;04/25/18;14:37:08;10.46;0.454;0.22;-7.512;8.31;-73.3;-0.5;-0.5;-3141;86.4;9.63;12.4;;
37.2383597861312;-107.909928639514;14:47:15.20;4/25/2018;12;2.482;273.28;9.30571804206125;0.79;265;275.08;3.74;7.52;21;.00;2.69;2.69;93;63;513.9;16.1;-3.9;D;542.8;2;47.799;2.5;2.44;192;272.86;-107.91046792;37.2383812;0;0;1;N;0.2080103;79;79;11;123;123;274.1031;0;9999.99;2.73;2.857;2;9;15;0;15;0.22;1466.16504;04/25/18;14:37:09;10.58;0.457;0.22;-7.512;8.30;-73.1;0.0;-5.2;-2203;86.5;9.62;12.4;;
37.2383607016002;-107.909942447799;14:47:16.20;4/25/2018;12;2.485;274.57;9.30571804206125;0.79;267.1;277.23;4.73;8.3;21;.00;2.69;2.69;93;63;513.9;16.1;-3.9;D;542.8;2;46.574;2.5;2.47;192;272.81;-107.91046792;37.2383812;0;0;1;N;0.1666608;85;85;11;113;113;273.8073;0;9999.99;2.73;2.857;2;9;15;0;15;0.22;1466.16502;04/25/18;14:37:10;10.68;0.454;0.22;-7.506;8.30;-72.8;0.0;-1.9;-2938;86.6;9.61;12.5;;
37.2383618874381;-107.909959189031;14:47:17.22;4/25/2018;12;2.442;274.91;9.30571804206125;0.75;265.5;275.59;4.28;8.4;21;.00;2.69;2.69;93;63;513.9;16.1;-3.9;D;542.8;2;45.087;2.5;2.49;192;272.73;-107.91046792;37.2383812;0;0;1;N;9.752593E-02;83;83;11;118;118;273.3122;0;9999.99;2.73;2.857;2;9;15;0;15;0.22;1466.16528;04/25/18;14:37:11;10.71;0.454;0.22;-7.509;8.34;-75.1;-1.1;-3.2;-1071;86.7;9.61;12.5;;
37.2383627906303;-107.909973103616;14:47:18.23;4/25/2018;12;2.429;274.56;9.30571804206125;0.75;266.5;276.61;4.9;8.6;21.1;.00;2.66;2.66;93;63;513.9;16.1;-3.9;D;542.8;2;43.852;2.5;2.48;192;272.68;-107.91046792;37.2383812;0;0;1;N;5.557049E-02;86;86;11;113;113;273.0118;0;9999.99;2.70;2.827;2;9;15;0;15;0.22;1466.16513;04/25/18;14:37:12;10.72;0.454;0.22;-7.503;8.31;-73.7;-0.6;-3.7;-3976;86.8;9.62;12.4;;
37.2383636126722;-107.909987096845;14:47:19.25;4/25/2018;12;2.388;274.5;9.30571804206125;0.75;263.6;273.64;3.71;8.1;21.1;.00;2.66;2.66;93;62;513.9;16.1;-3.8;D;552.3;2;42.610;2.5;2.52;192;272.63;-107.91046792;37.2383812;0;0;1;N;9.650103E-03;79;79;11;123;123;272.683;0;9999.99;2.70;2.827;2;9;15;0;15;0.22;1466.16516;04/25/18;14:37:13;10.75;0.454;0.22;-7.510;8.30;-73.2;-0.3;-2.6;-2657;87.0;9.63;12.6;;
37.2383646795742;-107.91000112211;14:47:20.25;4/25/2018;12;2.472;274.34;9.30571804206125;0.75;266.4;276.51;5.24;8.6;21;.00;2.66;2.66;93;62;513.9;16.1;-3.8;D;552.3;2;41.364;2.5;2.47;192;272.55;-107.91046792;37.2383812;0;0;1;N;4.472863E-02;88;88;11;110;110;272.2936;0;9999.99;2.70;2.827;2;9;15;0;15;0.22;1466.1652;04/25/18;14:37:14;10.77;0.454;0.22;-7.510;8.30;-73.0;-1.0;-1.5;-4056;87.1;9.64;12.4;;
37.2383655160746;-107.910015935885;14:47:21.25;4/25/2018;12;2.487;274.02;9.30571804206125;0.75;266;276.1;4.92;6.77;21;.00;2.60;2.61;93;62;513.9;16.1;-3.8;D;552.3;2;40.050;2.5;2.47;192;272.5;-107.91046792;37.2383812;0;0;1;N;7.715019E-02;87;87;11;111;111;272.0613;0;9999.99;2.65;2.777;2;9;15;0;15;0.22;1466.16527;04/25/18;14:37:15;10.78;0.454;0.22;-7.521;8.35;-75.6;0.0;-2.6;-4062;87.2;9.65;12.4;;
37.2383664940157;-107.910029177244;14:47:22.25;4/25/2018;12;2.42;274.14;9.30571804206125;0.75;264.8;274.87;4.44;7.28;21.1;.00;2.60;2.61;93;62;513.9;16.1;-3.8;D;548.5;2;38.874;2.5;2.46;192;272.41;-107.91046792;37.2383812;0;0;1;N;0.1354536;84;84;11;114;114;271.6439;0;9999.99;2.65;2.777;2;9;15;0;15;0.22;1466.16535;04/25/18;14:37:16;10.79;0.453;0.22;-7.506;8.32;-73.9;-0.4;-4.2;-928;87.2;9.65;12.3;;
37.2383670751402;-107.910042816361;14:47:23.25;4/25/2018;12;2.384;274.06;9.30571804206125;0.75;265.5;275.59;4.74;7.71;21.1;.00;2.65;2.65;93;62;513.9;16.1;-3.8;D;548.5;2;37.665;2.5;2.48;192;272.39;-107.91046792;37.2383812;0;0;1;N;0.1440779;85;85;11;111;111;271.5822;0;9999.99;2.69;2.817;2;9;15;0;15;0.22;1466.16514;04/25/18;14:37:17;10.78;0.453;0.22;-7.525;8.30;-73.1;-1.1;-4.5;-475;87.3;9.66;12.5;;
37.2383680316369;-107.910057616352;14:47:24.27;4/25/2018;12;2.448;273.83;9.30571804206125;0.75;265.1;275.18;4.79;8.5;21;.00;2.65;2.65;93;62;513.9;16.1;-3.8;D;548.5;2;36.352;2.5;2.47;192;272.31;-107.91046792;37.2383812;0;0;1;N;0.1903813;86;86;11;111;111;271.2507;0;9999.99;2.69;2.817;2;9;15;0;15;0.22;1466.16516;04/25/18;14:37:18;10.76;0.453;0.22;-7.511;8.30;-72.8;-0.8;-4.2;-2083;87.3;9.67;12.6;;
37.2383686325635;-107.910071811952;14:47:25.27;4/25/2018;12;2.45;273.25;9.30571804206125;0.75;263.7;273.75;4.38;10.1;21;.00;2.49;2.49;93;62;513.9;16.1;-3.8;D;548.5;2;35.094;2.5;2.48;192;272.28;-107.91046792;37.2383812;0;0;1;N;0.2011975;86;86;11;114;114;271.1733;0;9999.99;2.53;2.657;2;9;15;0;15;0.22;1466.1652;04/25/18;14:37:19;10.72;0.453;0.22;-7.514;8.31;-73.4;-0.6;-2.3;-261;87.4;9.68;12.6;;
37.2383693514392;-107.910085536372;14:47:26.28;4/25/2018;12;2.435;272.61;9.30571804206125;0.75;265.6;275.69;5.21;8.6;21.1;.00;2.49;2.49;93;62;513.8;16.1;-3.8;D;553.4;2;33.876;2.5;2.47;192;272.23;-107.91046792;37.2383812;0;0;1;N;0.2223077;88;88;11;108;108;271.0222;0;9999.99;2.53;2.657;2;9;15;0;15;0.22;1466.16511;04/25/18;14:37:20;10.69;0.453;0.22;-7.535;8.32;-74.2;0.1;-7.6;-2478;87.4;9.69;12.3;;
37.2383697042262;-107.910100150846;14:47:27.30;4/25/2018;12;2.438;272.71;9.30571804206125;0.75;264.2;274.26;4.42;7.5;21;.00;2.46;2.46;93;62;513.8;16.1;-3.8;D;553.4;2;32.582;2.5;2.48;192;272.25;-107.91046792;37.2383812;0;0;1;N;0.2075235;84;84;11;116;116;271.1281;0;9999.99;2.50;2.627;2;9;15;0;15;0.22;1466.16525;04/25/18;14:37:21;10.66;0.453;0.22;-7.524;8.30;-73.1;-0.1;-4.8;-2826;87.4;9.70;12.6;;
37.2383702562231;-107.910114626749;14:47:28.30;4/25/2018;12;2.451;273.11;9.30571804206125;0.75;265;275.08;5.24;9.5;21.1;.00;2.46;2.46;93;62;513.8;16.1;-3.8;D;553.4;2;31.299;2.5;2.45;192;272.23;-107.91046792;37.2383812;0;0;1;N;0.2049472;87;87;11;113;113;271.1465;0;9999.99;2.50;2.627;2;9;15;0;15;0.22;1466.16526;04/25/18;14:37:22;10.63;0.453;0.22;-7.542;8.30;-72.7;-0.3;-2.6;-2352;87.3;9.70;12.6;;
37.2383706109416;-107.910128125427;14:47:29.30;4/25/2018;12;2.458;272.36;9.30571804206125;0.75;262.2;272.21;4.15;8.5;21;.00;2.46;2.46;93;62;513.8;16.1;-3.8;D;550.9;2;30.104;2.5;2.45;192;272.24;-107.91046792;37.2383812;0;0;1;N;0.1964967;82;82;11;123;123;271.207;0;9999.99;2.50;2.627;2;9;15;0;15;0.22;1466.16515;04/25/18;14:37:23;10.58;0.452;0.22;-7.543;8.31;-73.2;0.1;-5.5;-2160;87.4;9.72;12.6;;
37.2383710148177;-107.910141844493;14:47:30.30;4/25/2018;12;2.484;272.28;9.30571804206125;0.75;262.2;272.21;4.3;8.5;21.1;.00;2.40;2.40;93;62;513.8;16.1;-3.8;D;550.9;2;28.888;2.5;2.43;192;272.25;-107.91046792;37.2383812;0;0;1;N;0.1882371;81;81;11;127;127;271.2661;0;9999.99;2.44;2.567;2;9;15;0;15;0.22;1466.16501;04/25/18;14:37:24;10.52;0.452;0.22;-7.535;8.33;-74.5;-0.2;-6.3;-2338;87.4;9.73;12.4;;
37.2383710244148;-107.910158086274;14:47:31.30;4/25/2018;12;2.465;271.14;9.30571804206125;0.75;263.1;273.13;4.76;9.3;21.1;.00;2.40;2.40;93;62;513.8;16.1;-3.8;D;550.9;2;27.452;2.5;2.42;192;272.36;-107.91046792;37.2383812;0;0;1;N;0.1196999;86;86;11;122;122;271.7567;0;9999.99;2.44;2.567;2;9;15;0;15;0.22;1466.165;04/25/18;14:37:25;10.47;0.454;0.22;-7.535;8.30;-73.1;-0.3;-1.9;-1510;87.4;9.74;12.6;;
37.2383710656598;-107.910170941787;14:47:32.30;4/25/2018;12;2.482;271.37;9.30571804206125;0.75;262.5;272.52;4.37;8.4;21.1;.00;2.44;2.44;93;62;513.8;16.1;-3.8;D;550.9;2;26.314;2.5;2.48;192;272.45;-107.91046792;37.2383812;0;0;1;N;0.0751897;83;83;11;125;125;272.0755;0;9999.99;2.48;2.607;2;9;15;0;15;0.22;1466.16506;04/25/18;14:37:26;10.46;0.453;0.22;-7.531;8.29;-72.6;-0.3;-5.6;-4211;87.3;9.74;12.4;;
37.2383713133444;-107.91018556428;14:47:33.30;4/25/2018;12;2.51;271.2;9.30571804206125;0.75;264.4;274.46;4.82;8.6;21.1;.00;2.44;2.44;93;63;513.7;16.1;-3.9;D;545.7;2;25.020;2.5;2.49;192;272.52;-107.91046792;37.2383812;0;0;1;N;3.959617E-02;86;86;11;118;118;272.3304;0;9999.99;2.48;2.607;2;9;14.9;0;14.8999996185303;0.22;1465.81412;04/25/18;14:37:27;10.42;0.452;0.22;-7.549;8.30;-73.0;-0.6;-3.1;-4765;87.3;9.74;12.5;;
37.238371832481;-107.910199825346;14:47:34.30;4/25/2018;12;2.505;271.5;9.30571804206125;0.75;265.3;275.39;4.64;6.8;21.1;.00;2.44;2.44;93;63;513.7;16.1;-3.9;D;545.7;2;23.756;2.5;2.49;192;272.51;-107.91046792;37.2383812;0;0;1;N;3.602325E-02;85;85;11;115;115;272.3559;0;9999.99;2.48;2.607;2;9;14.9;0;14.8999996185303;0.22;1465.81413;04/25/18;14:37:28;10.30;0.450;0.22;-7.536;8.33;-74.8;-0.7;1.5;-3713;87.3;9.77;12.4;;
37.238373027301;-107.910214508181;14:47:35.31;4/25/2018;12;2.466;273.45;9.30571804206125;0.75;266.5;276.61;4.94;8.4;21.1;.00;2.44;2.44;93;63;513.7;16.1;-3.9;D;545.7;2;22.452;2.5;2.51;192;272.32;-107.91046792;37.2383812;0;0;1;N;0.1018961;87;87;11;108;108;271.8842;0;9999.99;2.48;2.607;2;9;14.9;0;14.8999996185303;0.22;1465.81409;04/25/18;14:37:29;10.22;0.457;0.22;-7.540;8.31;-73.1;-0.9;-3.1;-1918;87.3;9.79;12.4;;
37.238374104334;-107.910230412092;14:47:36.33;4/25/2018;12;2.441;274.63;9.30571804206125;0.75;265.5;275.59;4.93;6.97;21.1;.00;2.44;2.44;93;62;513.7;16.1;-3.8;D;548.3;2;21.040;2.5;2.59;192;272.15;-107.91046792;37.2383812;0;0;1;N;0.1644388;87;87;11;110;110;271.4363;0;9999.99;2.48;2.607;2;9;14.9;0;14.8999996185303;0.22;1465.81418;04/25/18;14:37:30;10.38;0.457;0.22;-7.543;8.29;-72.2;-0.2;-0.2;-1139;87.1;9.73;12.6;;
37.2383752513196;-107.910243776862;14:47:37.33;4/25/2018;12;2.418;275.74;9.30571804206125;0.75;264.6;274.67;4.64;9.1;21.1;.00;2.42;2.42;93;62;513.7;16.1;-3.8;D;548.3;2;19.853;2.5;2.54;192;271.91;-107.91046792;37.2383812;0;0;1;N;0.2398281;87;87;11;110;110;270.8967;0;9999.99;2.46;2.587;2;9;14.9;0;14.8999996185303;0.22;1465.8142;04/25/18;14:37:31;10.49;0.453;0.22;-7.555;8.30;-72.8;-0.2;-4.0;-4080;87.0;9.69;12.6;;
37.2383764526818;-107.910256502283;14:47:38.33;4/25/2018;12;2.465;275.1;9.30571804206125;0.75;264.9;274.98;5.06;8.6;21.1;.00;2.42;2.42;93;62;513.7;16.1;-3.8;D;548.3;2;18.723;2.5;2.52;192;271.62;-107.91046792;37.2383812;0;0;1;N;0.3197581;87;87;11;108;108;270.325;0;9999.99;2.46;2.587;2;9;14.8;0;14.8999996185303;0.22;1465.8142;04/25/18;14:37:32;10.46;0.456;0.22;-7.560;8.30;-72.7;-0.6;-3.0;-3464;87.0;9.70;12.4;;
37.2383774035075;-107.910270251076;14:47:39.33;4/25/2018;12;2.468;274.83;9.30571804206125;0.75;263.3;273.34;4.69;9.2;21.2;.00;2.45;2.45;93;62;513.7;16.1;-3.8;D;548.3;2;17.504;2.5;2.54;192;271.38;-107.91046792;37.2383812;0;0;1;N;0.3682409;87;87;11;110;110;269.9783;0;9999.99;2.49;2.617;2;9;14.8;0;14.8000001907349;0.22;1465.46234;04/25/18;14:37:33;10.47;0.452;0.22;-7.556;8.31;-73.3;-0.8;-3.9;-3544;87.0;9.70;12.4;;
37.2383779825596;-107.910284731345;14:47:40.33;4/25/2018;12;2.386;274.46;9.30571804206125;0.75;262;272;4.06;8.3;21.2;.00;2.45;2.45;93;63;513.6;16.1;-3.9;D;546.4;2;16.221;2.5;2.55;192;271.26;-107.91046792;37.2383812;0;0;1;N;0.381288;81;81;11;119;119;269.8851;0;9999.99;2.49;2.617;2;9;14.8;0;14.8000001907349;0.22;1465.46232;04/25/18;14:37:34;10.35;0.451;0.22;-7.548;8.29;-72.2;0.0;-3.4;-3581;87.1;9.73;12.6;;
37.2383787154548;-107.910299487512;14:47:41.33;4/25/2018;12;2.393;274.41;9.30571804206125;0.75;262.3;272.31;4.09;7.7;21.1;.00;2.44;2.44;93;63;513.6;16.1;-3.9;D;546.4;2;14.913;2.5;2.56;192;271.06;-107.91046792;37.2383812;0;0;1;N;0.4024428;82;82;11;117;117;269.7339;0;9999.99;2.47;2.597;2;9;14.8;0;14.8000001907349;0.22;1465.46223;04/25/18;14:37:35;10.29;0.456;0.22;-7.545;8.30;-72.9;-0.6;-0.8;-1269;87.1;9.75;12.6;;
37.2383795815243;-107.910312800302;14:47:42.33;4/25/2018;12;2.448;273.47;9.30571804206125;0.79;263.7;273.75;4.82;8.8;21.1;.00;2.44;2.44;93;63;513.6;16.1;-3.9;D;546.4;2;13.733;2.5;2.46;192;270.75;-107.91046792;37.2383812;0;0;1;N;0.4411212;84;84;11;113;113;269.4576;0;9999.99;2.47;2.597;2;9;14.8;0;14.8000001907349;0.22;1465.46206;04/25/18;14:37:36;10.30;0.453;0.22;-7.537;8.29;-72.5;-0.8;-4.5;-4076;87.0;9.74;12.3;;
37.2383799934621;-107.910326258569;14:47:43.33;4/25/2018;12;2.432;272.73;9.30571804206125;0.79;262.2;272.21;3.9;6.8;21.1;.00;2.44;2.44;93;62;513.6;16.1;-3.8;D;547.9;2;12.542;2.5;2.44;192;270.61;-107.91046792;37.2383812;0;0;1;N;0.4342831;80;80;11;116;116;269.5064;0;9999.99;2.47;2.597;2;9;14.8;0;14.8000001907349;0.22;1465.46208;04/25/18;14:37:37;10.28;0.453;0.22;-7.530;8.29;-72.4;-0.4;-5.4;-4317;87.0;9.74;12.4;;
37.2383806151076;-107.910340108218;14:47:44.33;4/25/2018;12;2.377;273.08;9.30571804206125;0.75;262.5;272.52;4.21;7.22;21.1;.00;2.51;2.51;93;62;513.6;16.1;-3.8;D;547.9;2;11.315;2.5;2.45;192;270.33;-107.91046792;37.2383812;0;0;1;N;0.4471451;82;82;11;115;115;269.4145;0;9999.99;2.54;2.667;2;9;14.7;0;14.6999998092651;0.22;1465.10924;04/25/18;14:37:38;10.33;0.454;0.22;-7.534;8.33;-74.4;-0.3;-1.8;-4131;86.9;9.72;12.4;;
37.2383814982062;-107.910354172886;14:47:45.33;4/25/2018;12;2.348;273.94;9.30571804206125;0.75;261.9;271.9;3.67;7.75;21.2;.00;2.51;2.51;93;62;513.6;16.1;-3.8;D;547.9;2;10.069;2.5;2.44;192;269.81;-107.91046792;37.2383812;0;0;1;N;0.4911566;79;79;11;115;115;269.1008;0;9999.99;2.54;2.667;2;9;14.7;0;14.6999998092651;0.22;1465.10924;04/25/18;14:37:39;10.37;0.452;0.22;-7.546;8.31;-73.2;-0.3;0.8;-3853;86.8;9.70;12.6;;
37.2383823242625;-107.910369121674;14:47:46.33;4/25/2018;12;2.375;273.21;9.30571804206125;0.75;263;273.03;4.23;7.17;21.2;.00;2.54;2.54;93;62;513.6;16.1;-3.8;D;547.9;2;8.747;2.5;2.46;192;269.18;-107.91046792;37.2383812;0;0;1;N;0.517682;82;82;11;111;111;268.9114;0;9999.99;2.57;2.697;2;9;14.7;0;14.6999998092651;0.22;1465.10925;04/25/18;14:37:40;10.38;0.455;0.22;-7.543;8.29;-72.1;-0.1;0.5;-2972;86.8;9.70;12.5;;
37.2383828762005;-107.910383252852;14:47:47.33;4/25/2018;12;2.392;273.01;9.30571804206125;0.75;262.7;272.72;4.11;7.31;21.2;.00;2.54;2.54;93;62;513.5;16.1;-3.8;D;551.5;2;7.498;2.5;2.42;192;268.58;-107.91046792;37.2383812;0;0;1;N;0.5238389;82;82;11;112;112;268.8675;0;9999.99;2.57;2.697;2;9;14.7;0;14.6999998092651;0.22;1465.1093;04/25/18;14:37:41;10.46;0.455;0.22;-7.553;8.29;-72.2;0.2;-2.8;-4137;86.7;9.68;12.5;;
37.2383834813909;-107.910396289933;14:47:48.33;4/25/2018;12;2.402;273.27;9.30571804206125;0.75;262.8;272.82;4.37;7.71;21.2;.00;2.56;2.56;93;62;513.5;16.1;-3.8;D;551.5;2;6.347;2.5;2.44;192;267.71;-107.91046792;37.2383812;0;0;1;N;0.5389692;83;83;11;111;111;268.7593;0;9999.99;2.60;2.727;2;9;14.7;0;14.6999998092651;0.22;1465.1093;04/25/18;14:37:42;10.50;0.454;0.22;-7.543;8.29;-72.1;-0.4;-4.5;-1721;86.8;9.67;12.5;;
37.2383837179032;-107.910409644541;14:47:49.33;4/25/2018;12;2.375;273.16;9.30571804206125;0.75;262.2;272.21;4.26;8;21.2;.00;2.56;2.56;93;62;513.5;16.1;-3.8;D;551.5;2;5.167;2.5;2.44;192;266.89;-107.91046792;37.2383812;0;0;1;N;0.5162471;80;80;11;118;118;268.9218;0;9999.99;2.60;2.727;2;9;14.6;0;14.6000003814697;0.22;1464.75557;04/25/18;14:37:43;10.48;0.451;0.22;-7.540;8.31;-73.6;-1.1;-1.9;-2937;86.8;9.68;12.6;;
37.2383844946551;-107.910423348999;14:47:50.33;4/25/2018;12;2.392;272.46;9.30571804206125;0.75;262.7;272.72;4.38;6.74;21.1;.00;2.61;2.61;93;62;513.5;16.1;-3.8;D;550.8;2;3.962;2.5;2.46;192;264.7;-107.91046792;37.2383812;0;0;1;N;0.5404515;84;84;11;110;110;268.7489;0;9999.99;2.65;2.777;2;9;14.6;0;14.6000003814697;0.22;1464.75555;04/25/18;14:37:44;10.42;0.453;0.22;-7.538;8.29;-72.5;-1.1;-6.3;-2084;86.8;9.69;12.3;;
37.238384893804;-107.910437309411;14:47:51.33;4/25/2018;12;2.423;272.25;9.30571804206125;0.75;261.2;271.18;3.9;8.5;21.2;.00;2.61;2.61;93;63;513.5;16.1;-3.9;D;546.1;3;225.422;2.5;2.44;192;127.75;-107.90842397;37.23714371;0;0;1;N;0.5280363;83;83;11;5;5;141.8721;0;9999.99;2.65;2.777;2;9;14.6;0;14.6000003814697;0.22;1464.75571;04/25/18;14:37:45;10.38;0.453;0.22;-7.545;8.29;-72.3;-0.5;-3.7;-2110;86.9;9.70;12.4;;
37.2383849201971;-107.91045133329;14:47:52.33;4/25/2018;12;2.445;271.98;9.30571804206125;0.75;255.2;265.01;3.09;-0.54;21.2;.00;2.61;2.61;93;63;513.5;16.1;-3.9;D;546.1;3;226.407;2.5;2.45;192;127.56;-107.90842397;37.23714371;0;0;1;N;1.304824;76;76;11;5;5;136.5163;0;9999.99;2.65;2.777;2;9;14.6;0;14.6000003814697;0.22;1464.75564;04/25/18;14:37:46;10.37;0.455;0.22;-7.538;8.29;-72.0;-0.1;-1.7;-1517;86.9;9.71;12.3;;
37.2383832868878;-107.910464892587;14:47:53.33;4/25/2018;12;2.191;272.93;9.30571804206125;0.75;242;251.32;4.33;1.92;21.2;.00;2.64;2.64;93;63;513.5;16.1;-3.9;D;546.1;3;227.249;2.5;2.39;192;127.34;-107.90842397;37.23714371;0;0;1;N;0.4689047;82;82;11;5;5;130.6003;0;9999.99;2.67;2.797;2;9;14.6;0;14.6000003814697;0.22;1464.75551;04/25/18;14:37:47;10.44;0.454;0.22;-7.550;8.32;-74.2;-0.8;-0.8;-3965;86.9;9.69;12.5;;
37.2383813215244;-107.910474960177;14:47:54.33;4/25/2018;12;2.095;270.32;9.30571804206125;0.78;228.6;237.29;4.3;2.25;21.2;.00;2.64;2.65;93;64;513.5;16.1;-4;D;531;3;227.826;2.5;2.26;193;127.16;-107.90842397;37.23714371;0;0;1;N;0.2313493;83;83;11;5;5;125.7581;0;9999.99;2.67;2.797;2;9;14.6;0;14.6000003814697;0.22;1464.75553;04/25/18;14:37:48;10.49;0.452;0.22;-7.548;8.30;-72.8;-0.1;-3.4;-3192;86.8;9.68;12.4;;
37.2383769957501;-107.910486040985;14:47:55.33;4/25/2018;11;2.081;258.33;9.30571804206125;0.78;215;222.97;3.95;5.72;21.2;.00;2.74;2.74;93;64;513.5;16.1;-4;D;531;3;228.320;2.5;2.16;193;126.91;-107.90842397;37.23714371;0;0;1;N;1.223042;81;81;11;5;5;120.1964;0;9999.99;2.78;2.907;2;9;14.6;0;14.6000003814697;0.22;1464.75566;04/25/18;14:37:49;10.45;0.454;0.22;-7.554;8.28;-72.0;-0.6;-6.4;-1635;86.9;9.69;12.5;;
37.2383716176746;-107.910494446179;14:47:56.33;4/25/2018;12;2.103;244.09;9.30571804206125;0.78;201.6;208.86;4.14;5.88;21.2;.00;2.74;2.74;93;64;513.5;16.1;-4;D;531;3;228.557;2.5;2.14;193;126.68;-107.90842397;37.23714371;0;0;1;N;2.149623;82;82;11;5;5;115.5563;0;9999.99;2.78;2.907;2;9;14.6;0;14.6000003814697;0.22;1464.75567;04/25/18;14:37:50;10.48;0.453;0.22;-7.555;8.28;-72.0;-0.4;-2.9;-4144;86.9;9.68;12.5;;
37.23836345377;-107.91050128702;14:47:57.34;4/25/2018;12;2.066;231.78;9.30571804206125;0.75;185.6;192.16;4.3;5.19;21.2;.00;2.82;2.82;93;64;513.5;16.1;-4;D;531;3;228.503;2.5;2.12;194;126.41;-107.90842397;37.23714371;0;0;1;N;3.236644;83;83;11;5;5;109.8627;0;9999.99;2.86;2.987;2;9;14.5;0;14.5;0.22;1464.40102;04/25/18;14:37:51;10.46;0.453;0.22;-7.547;8.29;-72.2;-0.4;-2.5;-2442;86.9;9.69;12.4;;
37.238354992707;-107.910504770302;14:47:58.34;4/25/2018;12;2.055;217.6;9.30571804206125;0.75;171.7;177.9;4.09;6.45;21.2;.00;2.82;2.82;93;69;513.4;16.1;-4.3;D;491.7;3;228.195;2.5;2.1;194;126.17;-107.90842397;37.23714371;0;0;1;N;4.192626;82;82;11;5;5;104.0247;0;9999.99;2.86;2.987;2;9;14.5;0;14.5;0.22;1464.40101;04/25/18;14:37:52;10.41;0.453;0.22;-7.566;8.31;-73.6;-0.2;-3.6;-1234;86.9;9.71;12.4;;
37.2383465448623;-107.910505212634;14:47:59.38;4/25/2018;12;2.062;205.05;9.30571804206125;0.75;154.3;160.49;4.57;5.97;21.2;.00;2.99;2.99;93;70;513.4;16.1;-4.3;D;487.5;3;227.673;2.5;2.11;195;125.98;-107.90842397;37.23714371;0;0;1;N;5.000938;84;84;11;5;5;97.52652;0;9999.99;3.03;3.157;2;9;14.5;0;14.5;0.22;1464.40101;04/25/18;14:37:53;10.38;0.453;0.22;-7.573;8.29;-72.5;-0.9;-2.4;-3447;87.0;9.72;12.3;;
37.2383375345616;-107.910502130346;14:48:00.38;4/25/2018;12;2.063;193.54;9.30571804206125;0.75;139.4;146.02;4.56;6.36;21.2;.00;3.03;3.03;93;70;513.4;16.1;-4.3;D;487.5;3;226.865;2.5;2.1;195;125.81;-107.90842397;37.23714371;0;0;1;N;5.662364;84;84;11;5;5;91.96178;0;9999.99;3.07;3.197;2;9;14.5;0;14.5;0.22;1464.40106;04/25/18;14:37:54;10.40;0.456;0.22;-7.552;8.28;-71.8;-0.9;0.5;-2114;87.0;9.72;12.3;;
37.2383292171773;-107.910497217652;14:48:01.38;4/25/2018;12;2.209;175.69;9.30571804206125;0.75;124.9;132.27;4.56;7.4;21.2;.00;3.03;3.03;93;70;513.4;16.1;-4.3;D;487.5;3;225.972;2.5;2.1;195;125.69;-107.90842397;37.23714371;0;0;1;N;6.167286;84;84;11;5;5;89.61758;0;9999.99;3.07;3.197;2;9;14.5;0;14.5;0.22;1464.40106;04/25/18;14:37:55;10.51;0.454;0.22;-7.557;8.29;-72.2;0.0;-3.3;-1831;87.0;9.69;12.3;;
37.2383218659391;-107.91048910429;14:48:02.38;4/25/2018;12;2.238;161.8;9.30571804206125;0.75;110.2;118.58;4.06;5.86;21.1;.00;3.06;3.06;93;70;513.4;16.1;-4.3;D;487.5;3;224.912;2.5;2.14;196;125.62;-107.90842397;37.23714371;0;0;1;N;6.414113;81;81;11;7;7;88.52351;0;9999.99;3.10;3.227;2;9;14.5;0;14.5;0.22;1464.40117;04/25/18;14:37:56;10.53;0.453;0.22;-7.558;8.29;-72.2;0.1;-2.7;-4185;87.1;9.69;12.4;;
37.2383161459327;-107.910478032164;14:48:03.39;4/25/2018;12;2.269;144.62;9.30571804206125;0.75;94;103.59;4.45;9.2;21.2;.00;3.08;3.08;93;73;513.3;16;-4.5;D;469.5;3;223.744;2.5;2.16;196;125.64;-107.90842397;37.23714371;0;0;1;N;6.351541;84;84;11;60;60;88.80466;0;9999.99;3.12;3.247;2;9;14.5;0;14.5;0.22;1464.401;04/25/18;14:37:58;10.41;0.452;0.22;-7.570;8.29;-72.3;-0.5;-2.9;-2106;87.1;9.72;12.4;;
37.2383136691206;-107.910465075117;14:48:04.39;4/25/2018;12;2.309;126.87;9.30571804206125;0.75;85.4;95.61;4.1;13.4;21.2;.00;3.02;3.02;93;73;513.3;16;-4.5;D;469.5;3;222.652;2.5;2.19;196;125.75;-107.90842397;37.23714371;0;0;1;N;5.904473;82;82;11;105;105;90.82056;0;9999.99;3.06;3.183402;2;9;14.5;0;14.5;0.22;1464.401;04/25/18;14:37:58;10.41;0.452;0.22;-7.570;8.29;-72.3;-0.5;-2.9;-2106;87.1;9.72;12.4;;
37.2383123763593;-107.910450249454;14:48:05.39;4/25/2018;12;2.467;109.06;9.30571804206125;0.75;82.9;93.28;2.68;11.9;21.2;.00;3.05;3.05;93;73;513.3;16;-4.5;D;469.5;3;221.504;2.5;2.25;197;125.92;-107.90842397;37.23714371;0;0;1;N;5.230119;73;73;11;130;130;94.07455;0;9999.99;3.07;3.196158;2;9;14.5;0;14.5;0.22;1464.40112;04/25/18;14:37:59;10.34;0.452;0.22;-7.556;8.29;-72.1;-0.6;-1.7;-3395;87.0;9.73;12.3;;
37.2383119047182;-107.910433956544;14:48:06.39;4/25/2018;12;2.607;101.85;9.30571804206125;0.75;84.1;94.4;3.27;11.1;21.2;.00;3.05;3.05;93;73;513.3;16;-4.5;D;464.6;3;220.307;2.5;2.41;197;126.13;-107.90842397;37.23714371;0;0;1;N;4.391;77;77;11;143;143;98.4889;0;9999.99;3.07;3.196158;2;9;14.5;0;14.5;0.22;1464.40088;04/25/18;14:38:01;10.29;0.454;0.22;-7.515;8.28;-71.9;-1.4;-2.6;-2459;87.1;9.75;12.5;;
37.2383114106182;-107.910416284825;14:48:07.48;4/25/2018;12;2.706;95.35;9.30571804206125;0.75;85.2;95.42;5.17;11.1;21.2;.00;3.01;3.01;93;73;513.3;16;-4.5;D;464.6;3;219.012;2.5;2.69;197;126.36;-107.90842397;37.23714371;0;0;1;N;3.505637;88;88;11;160;160;103.5877;0;9999.99;3.06;3.185951;2;9;14.4;0;14.3999996185303;0.22;1464.04546;04/25/18;14:38:02;10.33;0.454;0.22;-7.536;8.30;-73.0;-1.1;-2.5;-3016;87.0;9.73;12.5;;
37.238310013875;-107.910398676001;14:48:08.50;4/25/2018;12;2.757;93.98;9.30571804206125;0.75;94;103.59;4.31;12.1;21.2;.00;3.02;3.02;93;73;513.3;16;-4.5;D;466;3;217.666;2.5;2.74;197;126.57;-107.90842397;37.23714371;0;0;1;N;2.669035;85;85;11;154;154;108.801;0;9999.99;3.06;3.186872;2;9;14.4;0;14.3999996185303;0.22;1464.04584;04/25/18;14:38:03;10.36;0.454;0.22;-7.559;8.29;-72.2;-0.7;1.2;-3566;86.9;9.71;12.4;;
37.2383079042881;-107.910383038143;14:48:09.50;4/25/2018;12;2.754;95.15;9.30571804206125;0.75;98.2;107.48;4.74;12;21.2;.01;3.05;3.06;93;73;513.3;16;-4.5;D;466;3;216.416;2.5;2.78;197;126.74;-107.90842397;37.23714371;0;0;1;N;1.995965;85;85;11;150;150;113.2415;0;9999.99;3.09;3.219396;2;9;14.4;0;14.3999996185303;0.22;1464.04584;04/25/18;14:38:03;10.36;0.454;0.22;-7.559;8.29;-72.2;-0.7;1.2;-3566;86.9;9.71;12.4;;
37.2383033703642;-107.910365817693;14:48:10.50;4/25/2018;12;2.966;100.82;9.30571804206125;0.75;102.9;111.82;5.01;10.7;21.2;.00;3.07;3.07;93;73;513.3;16;-4.5;D;466;3;214.893;2.5;2.8;196;126.87;-107.90842397;37.23714371;0;0;1;N;1.463218;87;87;11;147;147;116.8851;0;9999.99;3.11;3.235588;2;9;14.4;0;14.3999996185303;0.22;1464.04598;04/25/18;14:38:04;10.38;0.453;0.22;-7.563;8.28;-72.0;-0.2;0.5;-4263;86.9;9.71;12.3;;
37.2382985;-107.9103515;14:48:11.52;4/25/2018;12;2.607;109.15;9.30571804206125;0.75;107.9;116.45;4.77;10.9;21.2;.00;3.12;3.12;93;73;513.3;16;-4.5;D;466;3;213.533;2.5;2.8;196;126.96;-107.90842397;37.23714371;0;0;1;N;1.110354;84;84;11;138;138;119.3479;0;9999.99;3.16;3.283622;2;9;14.4;0;14.3999996185303;0.22;1464.04567;04/25/18;14:38:06;10.40;0.457;0.22;-7.560;8.28;-72.0;-0.3;-2.9;-3565;86.9;9.70;12.4;;
37.2382929228151;-107.910336887497;14:48:12.52;4/25/2018;12;2.607;109.15;9.30571804206125;0.75;111.3;119.6;4.94;10.1;21.2;.00;3.16;3.16;93;70;513.2;16;-4.3;D;487.3;3;212.148;2.5;2.78;196;127.04;-107.90842397;37.23714371;0;0;1;N;0.8202962;87;87;11;134;134;121.3952;0;9999.99;3.20;3.331332;2;9;14.4;0;14.3999996185303;0.22;1464.04567;04/25/18;14:38:06;10.40;0.457;0.22;-7.560;8.28;-72.0;-0.3;-2.9;-3565;86.9;9.70;12.4;;
37.2382865818737;-107.91032241236;14:48:13.53;4/25/2018;11;2.728;111.93;9.30571804206125;0.78;114.5;122.57;4.79;9.7;21.2;.00;3.24;3.24;93;70;513.2;16;-4.3;D;487.3;3;210.701;2.5;2.8;196;127.09;-107.90842397;37.23714371;0;0;1;N;0.5942763;86;86;11;129;129;123.0011;0;9999.99;3.28;3.407;2;9;14.3;0;14.3999996185303;0.22;1464.04574;04/25/18;14:38:07;10.43;0.454;0.22;-7.534;8.30;-73.1;-1.1;-8.7;-2554;86.8;9.69;12.5;;
37.2382768260088;-107.910307775102;14:48:14.53;4/25/2018;12;2.978;125.87;9.30571804206125;0.75;116.9;124.8;4.73;10.7;21.2;.00;3.18;3.18;93;70;513.2;16;-4.3;D;487.3;3;209.013;2.5;2.79;195;127.07;-107.90842397;37.23714371;0;0;1;N;0.4562052;89;89;11;122;122;122.4349;0;9999.99;3.23;3.355188;2;9;14.3;0;14.3000001907349;0.22;1463.68916;04/25/18;14:38:09;10.47;0.455;0.22;-7.552;8.28;-71.8;-0.1;2.5;-2056;86.8;9.68;12.3;;
37.2382705;-107.910296166667;14:48:15.53;4/25/2018;12;2.728;125.01;9.30571804206125;0.75;117.5;125.36;4.78;9.4;21.2;.00;3.24;3.25;93;68;513.2;16;-4.2;D;500.2;3;207.582;2.5;2.81;195;127.1;-107.90842397;37.23714371;0;0;1;N;0.5583325;86;86;11;119;119;123.2567;0;9999.99;3.29;3.417;2;9;14.3;0;14.3000001907349;0.22;1463.68916;04/25/18;14:38:09;10.47;0.455;0.22;-7.552;8.28;-71.8;-0.1;2.5;-2056;86.8;9.68;12.3;;
37.2382631666667;-107.910282833333;14:48:16.55;4/25/2018;12;2.704;125.41;9.30571804206125;0.75;118.3;126.1;4.64;9.8;21.2;.00;3.18;3.18;93;68;513.2;16;-4.2;D;500.2;3;206.378;2.5;2.79;195;127.12;-107.90842397;37.23714371;0;0;1;N;0.4909279;85;85;11;118;118;123.7373;0;9999.99;3.23;3.357;2;9;14.3;0;14.3000001907349;0.22;1463.68903;04/25/18;14:38:10;10.50;0.454;0.22;-7.552;8.28;-72.1;-0.8;-3.8;-4627;86.9;9.68;12.5;;
37.2382558333333;-107.910269833333;14:48:17.55;4/25/2018;12;2.788;127.57;9.30571804206125;0.75;118.6;126.38;4.62;9.1;21.1;.00;3.01;3.01;93;68;513.2;16;-4.2;D;500.2;3;204.904;2.5;2.8;194;127.14;-107.90842397;37.23714371;0;0;1;N;0.4278153;85;85;11;118;118;124.1876;0;9999.99;3.05;3.177;2;9;14.3;0;14.3000001907349;0.22;1463.68915;04/25/18;14:38:12;10.57;0.455;0.22;-7.551;8.30;-73.2;-1.0;-3.8;-2815;86.9;9.67;12.4;;
37.2382485;-107.910256833333;14:48:18.55;4/25/2018;12;2.684;127.75;9.30571804206125;0.75;118.3;126.1;4.95;9.4;21.1;.00;3.01;3.01;93;68;513.2;16;-4.2;D;500.2;3;203.535;2.5;2.83;194;127.15;-107.90842397;37.23714371;0;0;1;N;0.3803605;91;91;11;124;124;124.5264;0;9999.99;3.05;3.177;0;0;14.3;0;14.3000001907349;0.22;1463.68915;04/25/18;14:38:12;10.57;0.455;0.22;-7.551;8.30;-73.2;-1.0;-3.8;-2815;86.9;9.67;12.4;;
37.2382411666667;-107.910243666667;14:48:19.55;4/25/2018;12;2.668;126.92;9.30571804206125;0.75;117.1;124.99;5.65;9.1;21.2;.00;3.18;3.18;93;65;513.1;16.1;-4;D;522.3;3;202.061;2.5;2.95;194;127.17;-107.90842397;37.23714371;0;0;1;N;0.3150606;90;90;11;125;125;124.993;0;9999.99;3.23;3.357;2;9;14.3;0;14.3000001907349;0.22;1463.68902;04/25/18;14:38:13;10.57;0.453;0.22;-7.564;8.28;-71.7;-1.0;-4.2;-637;87.0;9.68;12.4;;
37.2382341666667;-107.910230666667;14:48:20.56;4/25/2018;12;2.647;126.58;9.30571804206125;0.75;117.6;125.45;5.68;9.8;21.2;.00;3.18;3.18;93;65;513.1;16.1;-4;D;522.3;3;200.550;2.5;2.81;193;127.2;-107.90842397;37.23714371;0;0;1;N;0.1934893;91;91;11;129;129;125.8625;0;9999.99;3.23;3.357;2;9;14.3;0;14.3000001907349;0.22;1463.68906;04/25/18;14:38:15;10.45;0.452;0.22;-7.547;8.29;-72.1;-0.7;-4.7;-3202;87.1;9.72;12.4;;
37.2382271666667;-107.910217833333;14:48:21.58;4/25/2018;12;2.742;127.17;9.30571804206125;0.75;119.9;127.59;4.82;8.5;21.2;.00;3.22;3.22;93;65;513.1;16.1;-4;D;522.3;3;199.265;2.5;2.5;193;127.2;-107.90842397;37.23714371;0;0;1;N;0.1798517;86;86;11;120;120;125.9601;0;9999.99;3.26;3.387;0;0;14.3;0;14.3000001907349;0.22;1463.68906;04/25/18;14:38:15;10.45;0.452;0.22;-7.547;8.29;-72.1;-0.7;-4.7;-3202;87.1;9.72;12.4;;
37.2382201666667;-107.910205166667;14:48:22.58;4/25/2018;12;2.684;128.19;9.30571804206125;0.75;118.6;126.38;5.42;9.6;21.2;.00;3.22;3.22;93;63;513.1;16.1;-3.9;D;537.5;3;198.030;2.5;2.84;193;127.18;-107.90842397;37.23714371;0;0;1;N;0.2358468;85;85;11;119;119;125.5592;0;9999.99;3.26;3.387;2;9;14.3;0;14.3000001907349;0.22;1463.68909;04/25/18;14:38:16;10.39;0.453;0.22;-7.563;8.32;-74.2;-0.6;-7.1;-1828;87.1;9.74;12.4;;
37.2382126666667;-107.910192833333;14:48:23.58;4/25/2018;12;2.612;128.07;9.30571804206125;0.75;118.1;125.92;5.5;9.2;21.1;.00;3.17;3.17;93;63;513.1;16.1;-3.9;D;537.5;3;196.531;2.5;2.66;192;127.19;-107.90842397;37.23714371;0;0;1;N;0.2028326;90;90;11;127;127;125.7953;0;9999.99;3.22;3.347;2;9;14.2;0;14.1999998092651;0.22;1463.33186;04/25/18;14:38:18;10.30;0.454;0.22;-7.553;8.28;-71.9;-0.8;-3.9;-1604;87.1;9.76;12.3;;
37.2382058333333;-107.91018;14:48:24.58;4/25/2018;12;2.586;126.64;9.30571804206125;0.75;119.5;127.22;4.3;9.5;21.2;.00;3.29;3.29;93;63;513.1;16.1;-3.9;D;537.5;3;195.252;2.5;2.63;192;127.21;-107.90842397;37.23714371;0;0;1;N;0.1448689;83;83;11;123;123;126.2101;0;9999.99;3.33;3.457;2;9;14.2;0;14.1999998092651;0.22;1463.33186;04/25/18;14:38:18;10.30;0.454;0.22;-7.553;8.28;-71.9;-0.8;-3.9;-1604;87.1;9.76;12.3;;
37.238198486775;-107.910165712544;14:48:25.58;4/25/2018;12;2.613;126.54;9.30571804206125;0.75;117.6;125.45;4.81;8.6;21.2;.00;3.30;3.30;93;63;513.1;16.1;-3.9;D;537.5;3;193.729;2.5;2.67;192;127.26;-107.90842397;37.23714371;0;0;1;N;2.989981E-02;86;86;11;134;134;127.3252;0;9999.99;3.35;3.477;2;9;14.2;0;14.1999998092651;0.22;1463.33157;04/25/18;14:38:19;10.37;0.454;0.22;-7.545;8.29;-72.0;-0.2;-2.3;-3654;87.2;9.74;12.6;;
37.2381913204977;-107.910153754357;14:48:26.58;4/25/2018;12;2.6;127.22;9.30571804206125;0.75;118.7;126.48;4.52;9.3;21.2;.00;3.36;3.36;93;62;513.0;16.1;-3.8;D;551.6;3;192.404;2.5;2.62;192;127.26;-107.90842397;37.23714371;0;0;1;N;9.511932E-02;84;84;11;131;131;127.3877;0;9999.99;3.41;3.537;2;9;14.2;0;14.1999998092651;0.22;1463.33157;04/25/18;14:38:21;10.56;0.455;0.22;-7.552;8.31;-73.4;-1.4;-3.4;-2912;87.1;9.69;12.4;;
37.2381848333333;-107.910143166667;14:48:27.58;4/25/2018;12;2.487;126.38;9.30571804206125;0.75;118.2;126.01;5.01;8.1;21.2;.00;3.34;3.34;93;62;513.0;16.1;-3.8;D;551.6;3;191.167;2.5;2.56;192;127.28;-107.90842397;37.23714371;0;0;1;N;8.863034E-02;87;87;11;134;134;127.8819;0;9999.99;3.38;3.507;2;9;14.2;0;14.1999998092651;0.22;1463.33157;04/25/18;14:38:21;10.56;0.455;0.22;-7.552;8.31;-73.4;-1.4;-3.4;-2912;87.1;9.69;12.4;;
37.2381776666667;-107.910131166667;14:48:28.58;4/25/2018;12;2.522;126.94;9.30571804206125;0.75;119.5;127.22;4.33;9.2;21.2;.00;3.48;3.48;93;62;513.0;16.1;-3.8;D;551.6;3;189.917;2.5;2.53;192;127.3;-107.90842397;37.23714371;0;0;1;N;0.1533364;83;83;11;131;131;128.345;0;9999.99;3.52;3.647;2;9;14.2;0;14.1999998092651;0.22;1463.33155;04/25/18;14:38:22;10.63;0.453;0.22;-7.561;8.29;-72.3;-0.5;-1.6;-968;87.1;9.67;12.3;;
37.238171;-107.910119;14:48:29.58;4/25/2018;12;2.517;126.27;9.30571804206125;0.75;119.8;127.5;4.4;8.2;21.2;.00;3.51;3.51;93;63;512.9;16.1;-3.9;D;544.7;3;188.596;2.5;2.52;192;127.28;-107.90842397;37.23714371;0;0;1;N;7.669084E-02;82;82;11;126;126;127.796;0;9999.99;3.55;3.677;2;9;14.2;0;14.1999998092651;0.22;1463.33152;04/25/18;14:38:24;10.54;0.453;0.22;-7.553;8.28;-72.0;-0.2;-1.9;-5008;87.2;9.70;12.2;;
37.2381625;-107.9101075;14:48:30.58;4/25/2018;12;2.677;130.11;9.30571804206125;0.75;120.5;128.15;3.75;8.6;21.1;.00;3.56;3.56;93;63;512.9;16.1;-3.9;D;544.7;3;187.290;2.5;2.54;192;127.3;-107.90842397;37.23714371;0;0;1;N;0.1447619;81;81;11;128;128;128.2833;0;9999.99;3.60;3.727;2;9;14.2;0;14.1999998092651;0.22;1463.33151;04/25/18;14:38:25;10.48;0.454;0.22;-7.553;8.28;-71.7;-0.7;-7.6;-2469;87.2;9.72;12.5;;
37.2381551666667;-107.910095833333;14:48:31.58;4/25/2018;12;2.483;128.97;9.30571804206125;0.75;120.3;127.97;4.3;9.5;21.2;.00;3.63;3.63;93;63;512.9;16.1;-3.9;D;544.7;3;185.920;2.5;2.52;192;127.25;-107.90842397;37.23714371;0;0;1;N;3.265513E-03;83;83;11;123;123;127.2232;0;9999.99;3.67;3.797;2;9;14.2;0;14.1999998092651;0.22;1463.33151;04/25/18;14:38:25;10.48;0.454;0.22;-7.553;8.28;-71.7;-0.7;-7.6;-2469;87.2;9.72;12.5;;
37.2381470025467;-107.910082862987;14:48:32.58;4/25/2018;12;2.477;129.37;9.30571804206125;0.75;120.3;127.97;4.43;7.59;21.2;.00;3.72;3.72;93;63;512.9;16.1;-3.9;D;544.7;3;184.425;2.5;2.48;192;127.22;-107.90842397;37.23714371;0;0;1;N;3.661187E-02;84;84;11;121;121;126.5333;0;9999.99;3.76;3.887;2;9;14.2;0;14.1999998092651;0.22;1463.33152;04/25/18;14:38:26;10.50;0.452;0.22;-7.532;8.32;-74.0;0.1;-3.6;-1997;87.1;9.71;12.3;;
37.2381394907028;-107.910071536371;14:48:33.58;4/25/2018;12;2.509;129.5;9.30571804206125;0.75;118.9;126.66;4.94;8.8;21.2;.00;3.77;3.77;93;62;512.9;16.1;-3.8;D;547.1;3;183.122;2.5;2.49;192;127.2;-107.90842397;37.23714371;0;0;1;N;7.141566E-02;83;83;11;119;119;126.1287;0;9999.99;3.81;3.937;2;9;14.2;0;14.1999998092651;0.22;1463.33152;04/25/18;14:38:28;10.38;0.455;0.22;-7.538;8.28;-71.8;-1.1;-4.1;-2307;87.1;9.73;12.4;;
37.2381333333333;-107.910061333333;14:48:34.58;4/25/2018;12;2.496;128.41;9.30571804206125;0.75;120.3;127.97;4.06;8.2;21.1;.00;3.81;3.81;93;62;512.9;16.1;-3.8;D;547.1;3;181.925;2.5;2.46;192;127.22;-107.90842397;37.23714371;0;0;1;N;0.11663;81;81;11;119;119;126.4109;0;9999.99;3.85;3.977;0;0;14.2;0;14.1999998092651;0.22;1463.33152;04/25/18;14:38:28;10.38;0.455;0.22;-7.538;8.28;-71.8;-1.1;-4.1;-2307;87.1;9.73;12.4;;
37.2381249892247;-107.910048735001;14:48:35.59;4/25/2018;12;2.495;128.56;9.30571804206125;0.75;120;127.69;4.11;8.6;21.1;.00;3.82;3.82;93;62;512.9;16.1;-3.8;D;547.1;3;180.539;2.5;2.45;192;127.18;-107.90842397;37.23714371;0;0;1;N;0.1262528;82;82;11;119;119;125.7004;0;9999.99;3.85;3.977;2;9;14.1;0;14.1999998092651;0.22;1463.33161;04/25/18;14:38:29;10.39;0.452;0.22;-7.549;8.28;-71.7;-1.3;-0.3;-3366;87.0;9.72;12.5;;
37.2381175490338;-107.910037843904;14:48:36.63;4/25/2018;12;2.45;129.39;9.30571804206125;0.75;119.2;126.94;4.43;8.6;21.2;.00;3.87;3.87;93;62;512.9;16.1;-3.8;D;547.1;3;179.271;2.5;2.46;192;127.16;-107.90842397;37.23714371;0;0;1;N;0.1783105;84;84;11;122;122;125.1045;0;9999.99;3.91;4.037;2;9;14.1;0;14.1000003814697;0.22;1462.97326;04/25/18;14:38:31;10.23;0.453;0.22;-7.542;8.33;-74.2;0.4;-1.1;-2986;86.9;9.75;12.5;;
37.2381106222284;-107.910026370723;14:48:37.63;4/25/2018;12;2.511;127.85;9.30571804206125;0.78;119.4;127.13;3.87;6.97;21.1;.00;3.82;3.82;93;63;512.8;16.1;-3.9;D;542.5;3;177.996;2.5;2.49;192;127.16;-107.90842397;37.23714371;0;0;1;N;0.2385589;80;80;11;119;119;125.1445;0;9999.99;3.86;3.987;2;9;14.1;0;14.1000003814697;0.22;1462.97326;04/25/18;14:38:31;10.23;0.453;0.22;-7.542;8.33;-74.2;0.4;-1.1;-2986;86.9;9.75;12.5;;
37.2381036407533;-107.910014521895;14:48:38.64;4/25/2018;11;2.517;127.49;9.30571804206125;0.78;118.3;126.1;4.63;8.3;21.1;.00;3.91;3.91;93;63;512.8;16.1;-3.9;D;542.5;3;176.691;2.5;2.49;192;127.16;-107.90842397;37.23714371;0;0;1;N;0.2302715;85;85;11;124;124;125.2485;0;9999.99;3.95;4.077;2;9;14.1;0;14.1000003814697;0.22;1462.97328;04/25/18;14:38:32;10.22;0.453;0.22;-7.546;8.30;-73.0;-1.3;-6.4;-2835;86.9;9.75;12.4;;
37.2380963538563;-107.910002637879;14:48:39.64;4/25/2018;11;2.527;127.52;9.30571804206125;0.78;117.6;125.45;4.71;9.4;21.1;.00;4.06;4.06;93;63;512.8;16.1;-3.9;D;542.5;3;175.363;2.5;2.53;192;127.16;-107.90842397;37.23714371;0;0;1;N;0.201241;83;83;11;123;123;125.1832;0;9999.99;4.10;4.227;2;9;14.1;0;14.1000003814697;0.22;1462.97335;04/25/18;14:38:33;10.23;0.454;0.22;-7.536;8.28;-71.9;-0.2;-2.6;-2378;86.9;9.74;12.4;;
